WardID,Ward Name,Neighbours,Area,Perimeter,Electorate,Constituency,Lng,Lat,OuterLength,NeighbourID,RealLengths,CleanLengths,InitialConstituency,Unionist,Nationalist
N08000304,BALLYMACARRETT,"DUNCAIRN,SYDENHAM,CENTRAL,WOODSTOCK,CONNSWATER,BEERSBRIDGE",988304,4494,"3,687",Belfast East,-5.90758701,54.5991866,0,"N08000304,N08000308,N08000315,N08000320,N08000322,N08000353,N08000359","[0.0, 653.6569010198002, 702.5176459952692, 673.1588537086035, 233.22526564559374, 1799.2991110228222, 432.14225971306024]","0.0, 653.6569010198002, 702.5176459952692, 673.1588537086035, 233.22526564559374, 1799.2991110228222, 432.14225971306024",Belfast East,2854.569841,832
N08000308,BEERSBRIDGE,"WOODSTOCK,CONNSWATER,BLOOMFIELD,ORANGEFIELD,BALLYMACARRETT",950232,4970,"3,795",Belfast East,-5.89586961,54.59136626,0,"N08000304,N08000308,N08000313,N08000320,N08000341,N08000359","[701.7764960549893, 0.0, 1288.4583236187314, 616.0727797191802, 1409.376086790132, 954.3163472651745]","701.7764960549893, 0.0, 1288.4583236187314, 616.0727797191802, 1409.376086790132, 954.3163472651745",Belfast East,3025.908751,769
N08000310,BELMONT,"SYDENHAM,CONNSWATER,KNOCK,GARNERVILLE",1437006,5284,"3,566",Belfast East,-5.8641838,54.60540752,0,"N08000310,N08000320,N08000333,N08000329,N08000353","[0.0, 675.5540656321481, 1361.5833067732, 1496.8006475693194, 1760.3986578773934]","0.0, 675.5540656321481, 1361.5833067732, 1496.8006475693194, 1760.3986578773934",Belfast East,2784.905114,781
N08000313,BLOOMFIELD,"SANDOWN,CONNSWATER,ORANGEFIELD,BEERSBRIDGE,KNOCK",815285,4223,"3,705",Belfast East,-5.88406182,54.59386234,0,"N08000308,N08000313,N08000320,N08000333,N08000341,N08000346","[1223.6936055020421, 0.0, 1221.878710809705, 623.9740679784019, 386.33470246247333, 767.1189445326669]","1223.6936055020421, 0.0, 1221.878710809705, 623.9740679784019, 386.33470246247333, 767.1189445326669",Belfast East,2936.16352,769
N08000320,CONNSWATER,"SYDENHAM,BLOOMFIELD,BALLYMACARRETT,BEERSBRIDGE,BELMONT,KNOCK",927686,5176,"3,732",Belfast East,-5.88640387,54.59981183,0,"N08000304,N08000308,N08000310,N08000313,N08000320,N08000333,N08000353","[667.7650817917499, 569.2318549960103, 611.959993435079, 1188.7292746179437, 0.0, 492.5904071571156, 1645.7233845404057]","667.7650817917499, 569.2318549960103, 611.959993435079, 1188.7292746179437, 0.0, 492.5904071571156, 1645.7233845404057",Belfast East,2938.926419,793
N08000333,KNOCK,"SANDOWN,STORMONT,CONNSWATER,BLOOMFIELD,BELMONT,SHANDON,GARNERVILLE",1297551,4946,"3,704",Belfast East,-5.86272746,54.59568435,0.001272729,"N08000310,N08000313,N08000320,N08000333,N08000329,N08000351,N08000347,N08000346,out","[1251.8831797557834, 616.138104100689, 499.9684699006044, 0.0, 10.85693917121478, 1058.252285086049, 0.0, 1412.6726348300176, 96.22841828057422]","1251.8831797557834, 616.138104100689, 499.9684699006044, 0.0, 10.85693917121478, 1058.252285086049, 0.0, 1412.6726348300176, 96.22841828057422",Belfast East,2957.592483,746
N08000338,MEROK,"SANDOWN,CREGAGH,ORANGEFIELD,RAVENHILL,HILLFOOT",1419553,5660,"3,119",Belfast East,-5.8851426,54.57723445,0.001844595,"N08000321,N08000338,N08000341,N08000331,N08000344,N08000346,out","[814.222217684783, 0.0, 1892.1671339100853, 2110.7559523593764, 386.32843835133497, 309.7526875250178, 146.77360500007677]","814.222217684783, 0.0, 1892.1671339100853, 2110.7559523593764, 386.32843835133497, 309.7526875250178, 146.77360500007677",Belfast East,2482.989226,636
N08000341,ORANGEFIELD,"SANDOWN,WOODSTOCK,BLOOMFIELD,RAVENHILL,BEERSBRIDGE,MEROK",1255155,5819,"3,482",Belfast East,-5.88361313,54.58505415,0,"N08000308,N08000313,N08000338,N08000341,N08000344,N08000346,N08000359","[1367.359471388767, 394.6546370570406, 1860.038866487388, 0.0, 680.8191410587393, 1452.1859902528681, 63.941914692387904]","1367.359471388767, 394.6546370570406, 1860.038866487388, 0.0, 680.8191410587393, 1452.1859902528681, 63.941914692387904",Belfast East,2742.979111,739
N08001125,HOLYWOOD,"CARROWREAGH,LOUGHVIEW,STORMONT,DUNDONALD,CULTRA",4909523,12223,"3,143",Belfast East,-5.81612444,54.62986591,0.010706911,"N08001118,N08001125,N08001130,N08000351,N08000709,N08000715,out","[5147.107590759878, 0.0, 4766.5622772097895, 427.0615168700452, 84.58886351152034, 956.1433266476438, 841.5363900327167]","5147.107590759878, 0.0, 4766.5622772097895, 427.0615168700452, 84.58886351152034, 956.1433266476438, 841.5363900327167",North Down,2838.729563,304
N08001130,LOUGHVIEW,"SYDENHAM,STORMONT,HOLYWOOD,GARNERVILLE",4819453,12012,"2,892",Belfast East,-5.83786704,54.62723734,0.018185866,"N08001125,N08001130,N08000329,N08000351,N08000353,out","[4775.447693174928, 0.0, 3538.1915569305247, 1298.1611927050074, 968.1715057886186, 1432.0280509992697]","4775.447693174928, 0.0, 3538.1915569305247, 1298.1611927050074, 968.1715057886186, 1432.0280509992697",North Down,2592.290315,300
N08000716,ENLER,"CARROWREAGH,BALLYHANWOOD,GRAHAM'S BRIDGE",620704,3740,"2,206",Belfast East,-5.79249593,54.58709338,0,"N08000716,N08000702,N08000709,N08000719","[0.0, 1137.9010048903779, 1242.7488210987433, 1343.0949222118654]","0.0, 1137.9010048903779, 1242.7488210987433, 1343.0949222118654",North Down,1719.36648,487
N08000702,BALLYHANWOOD,"CARROWREAGH,SCRABO,STORMONT,ENLER,DUNDONALD,GRAHAM'S BRIDGE,MONEYREAGH,COMBER WEST,SHANDON,GILNAHIRK,HILLFOOT",11389980,18820,"2,240",Belfast East,-5.81736856,54.5716758,0,"N08001115,N08001136,N08000716,N08000702,N08000734,N08000351,N08000347,N08000330,N08000331,N08000709,N08000715,N08000719","[3051.032271914041, 102.76017169685082, 1078.010750506545, 0.0, 6616.295989860568, 539.0493143410404, 2397.792184848933, 2632.237158942613, 0.0, 1056.0401239734456, 148.80674406388403, 1288.1060744935107]","3051.032271914041, 102.76017169685082, 1078.010750506545, 0.0, 6616.295989860568, 539.0493143410404, 2397.792184848933, 2632.237158942613, 0.0, 1056.0401239734456, 148.80674406388403, 1288.1060744935107",North Down,1803.030446,437
N08000329,GARNERVILLE,"SYDENHAM,LOUGHVIEW,STORMONT,BELMONT,KNOCK",2900332,8677,"3,524",Belfast East,-5.84718917,54.61285352,0,"N08000310,N08000333,N08001130,N08000329,N08000351,N08000353","[1504.590882117324, 11.869769400531053, 3714.207569749492, 0.0, 2480.4824351358307, 924.1378427477049]","1504.590882117324, 11.869769400531053, 3714.207569749492, 0.0, 2480.4824351358307, 924.1378427477049",Belfast East,2786.915552,737
N08000351,STORMONT,"SANDOWN,LOUGHVIEW,BALLYHANWOOD,DUNDONALD,HOLYWOOD,KNOCK,SHANDON,GARNERVILLE,GILNAHIRK",5322682,11868,"3,712",Belfast East,-5.83017928,54.60087851,0.002573232,"N08000333,N08001125,N08001130,N08000702,N08000329,N08000351,N08000347,N08000330,N08000346,N08000715,out","[1084.2143692796756, 420.8963452856655, 1277.0400503448366, 532.1044029944918, 2324.487540588373, 0.0, 994.4352111973693, 1523.6280418879505, 0.0, 3511.8641721269096, 199.32983812561017]","1084.2143692796756, 420.8963452856655, 1277.0400503448366, 532.1044029944918, 2324.487540588373, 0.0, 994.4352111973693, 1523.6280418879505, 0.0, 3511.8641721269096, 199.32983812561017",Belfast East,2963.523975,748
N08000347,SHANDON,"SANDOWN,STORMONT,BALLYHANWOOD,MONEYREAGH,KNOCK,GILNAHIRK,HILLFOOT",2612891,8668,"3,800",Belfast East,-5.85484429,54.57957284,0,"N08000333,N08000702,N08000734,N08000351,N08000347,N08000330,N08000331,N08000346","[0.0, 2476.0601231583637, 0.0, 1040.2980500521912, 0.0, 2287.2730126957904, 1605.6105045891454, 1263.885232346055]","0.0, 2476.0601231583637, 0.0, 1040.2980500521912, 0.0, 2287.2730126957904, 1605.6105045891454, 1263.885232346055",Belfast East,2996.983209,803
N08000330,GILNAHIRK,"STORMONT,BALLYHANWOOD,SHANDON",1805919,6319,"3,605",Belfast East,-5.8352108,54.58481087,0,"N08000702,N08000351,N08000347,N08000330","[2602.6952445133566, 1526.19106031575, 2190.113706200961, 0.0]","2602.6952445133566, 1526.19106031575, 2190.113706200961, 0.0",Belfast East,2823.849826,781
N08000350,STEWARTSTOWN,"POLEGLASS,COLLIN GLEN,LADYBROOK,SHAW'S ROAD,ANDERSONSTOWN",993962,6277,"3,578",Belfast West,-6.00939728,54.57014464,0,"N08000301,N08000319,N08000334,N08000343,N08000350,N08000349","[508.39934355257907, 1592.912550918963, 1716.8120664915618, 1607.6731578107724, 0.0, 815.8915611134087]","508.39934355257907, 1592.912550918963, 1716.8120664915618, 1607.6731578107724, 0.0, 815.8915611134087",North Tyrone,699.0806545,"2,879"
N08000331,HILLFOOT,"SANDOWN,BALLYHANWOOD,MONEYREAGH,CREGAGH,GALWALLY,MEROK,SHANDON",2620541,7981,"3,631",Belfast East,-5.88102956,54.56968635,0.001837072,"N08000321,N08000338,N08000702,N08000734,N08000347,N08000331,N08000346,N08000717,out","[927.8667204804555, 2020.8895531583098, 0.0, 1797.8637456959484, 1509.443844137762, 0.0, 47.780918879852194, 1537.2036625965752, 139.95155278508986]","927.8667204804555, 2020.8895531583098, 0.0, 1797.8637456959484, 1509.443844137762, 0.0, 47.780918879852194, 1537.2036625965752, 139.95155278508986",Belfast East,2224.784813,"1,406"
N08000346,SANDOWN,"STORMONT,BLOOMFIELD,ORANGEFIELD,MEROK,KNOCK,SHANDON,HILLFOOT",938064,5257,"3,255",Belfast East,-5.86784208,54.58815336,0,"N08000313,N08000333,N08000338,N08000341,N08000351,N08000347,N08000331,N08000346","[782.3256138699745, 1458.9985055838536, 303.98276390392874, 1449.7515925774119, 0.0, 1217.9058576951436, 48.976056981196955, 0.0]","782.3256138699745, 1458.9985055838536, 303.98276390392874, 1449.7515925774119, 0.0, 1217.9058576951436, 48.976056981196955, 0.0",Belfast East,2608.892602,646
N08000353,SYDENHAM,"DUNCAIRN,LOUGHVIEW,CONNSWATER,BALLYMACARRETT,BELMONT,GARNERVILLE",9103272,13817,"3,491",Belfast East,-5.88214399,54.61767968,0.023698769,"N08000304,N08000310,N08000320,N08000322,N08001130,N08000329,N08000353,out","[1921.1814770953054, 1716.456612709447, 1771.3962552819041, 4625.542178083357, 985.8355244186766, 896.4046334838133, 0.0, 1900.1833159500181]","1921.1814770953054, 1716.456612709447, 1771.3962552819041, 4625.542178083357, 985.8355244186766, 896.4046334838133, 0.0, 1900.1833159500181",Belfast East,2815.539884,675
N08000709,CARROWREAGH,"SCRABO,ENLER,BALLYHANWOOD,DUNDONALD,GRAHAM'S BRIDGE,HOLYWOOD,CULTRA",7389886,16053,"3,117",Belfast East,-5.78113563,54.59745366,0,"N08001118,N08001125,N08001136,N08000716,N08000702,N08000709,N08000715,N08000719","[2745.8861597947903, 89.06220500965884, 6379.024598283371, 1241.5547109288789, 1113.6386900289338, 0.0, 2257.5229095327627, 2263.548700415517]","2745.8861597947903, 89.06220500965884, 6379.024598283371, 1241.5547109288789, 1113.6386900289338, 0.0, 2257.5229095327627, 2263.548700415517",North Down,2404.316847,713
N08000715,DUNDONALD,"CARROWREAGH,STORMONT,BALLYHANWOOD,GRAHAM'S BRIDGE,HOLYWOOD",2107313,9332,"2,262",Belfast East,-5.80628783,54.60305382,0,"N08001125,N08000702,N08000351,N08000709,N08000715,N08000719","[1030.6553124815925, 160.65590777003817, 3840.9923474290317, 2311.2257157094764, 0.0, 1915.7392582878897]","1030.6553124815925, 160.65590777003817, 3840.9923474290317, 2311.2257157094764, 0.0, 1915.7392582878897",North Down,1849.177742,413
N08000719,GRAHAM'S BRIDGE,"CARROWREAGH,ENLER,BALLYHANWOOD,DUNDONALD",990959,6285,"2,171",Belfast East,-5.80085356,54.59198592,0,"N08000716,N08000702,N08000709,N08000715,N08000719","[1235.348988605107, 1250.5929444791182, 2083.96440771545, 1722.767455051656, 0.0]","1235.348988605107, 1250.5929444791182, 2083.96440771545, 1722.767455051656, 0.0",North Down,1759.965935,411
N08000101,ABBEY,"RATHCOOLE,WHITEHOUSE,MONKSTOWN,ROSTULLA,CARNMONEY HILL",909715,5294,"2,351",Belfast North,-5.90008775,54.67720952,0.008531225,"N08000101,N08000112,N08000126,N08000131,N08000132,N08000140,out","[0.0, 1124.5411118603552, 621.5772103259012, 63.65332008627041, 1088.7040778743155, 1705.71728383241, 689.8069787324955]","0.0, 1124.5411118603552, 621.5772103259012, 63.65332008627041, 1088.7040778743155, 1705.71728383241, 689.8069787324955",East Antrim,866.281585,"1,485"
N08000107,BALLYHENRY,"HIGHTOWN,CARNMONEY,BURNTHILL,GLENGORMLEY,MALLUSK",860124,5461,"2,123",Belfast North,-5.97190696,54.68059564,0,"N08000107,N08000110,N08000111,N08000121,N08000125,N08000123","[0.0, 1866.9695587693627, 101.16246823839018, 772.7852969654016, 1840.6930394345472, 863.1790972606545]","0.0, 1866.9695587693627, 101.16246823839018, 772.7852969654016, 1840.6930394345472, 863.1790972606545",West Antrim,1281.007822,842
N08000110,BURNTHILL,"CARNMONEY,BALLYHENRY,MOSSLEY,MALLUSK",958029,5730,"2,492",Belfast North,-5.96256304,54.68617116,0,"N08000107,N08000110,N08000111,N08000125,N08000127","[1757.7163509326824, 0.0, 1635.5219013064277, 410.37318662627615, 1926.3885851481177]","1757.7163509326824, 0.0, 1635.5219013064277, 410.37318662627615, 1926.3885851481177",West Antrim,1686.619618,805
N08000111,CARNMONEY,"GLEBE,FAIRVIEW,BALLYHENRY,BURNTHILL,CARNMONEY HILL,GLENGORMLEY,MOSSLEY",611023,4175,"2,126",Belfast North,-5.95333426,54.68330833,0,"N08000107,N08000110,N08000111,N08000112,N08000118,N08000120,N08000121,N08000127","[93.47684560498003, 1605.2010670752834, 0.0, 526.6220303229, 631.9603504559622, 382.8195942589697, 712.7607151260939, 222.15942007006984]","93.47684560498003, 1605.2010670752834, 0.0, 526.6220303229, 631.9603504559622, 382.8195942589697, 712.7607151260939, 222.15942007006984",West Antrim,1515.029784,611
N08000112,CARNMONEY HILL,"O'NEILL,RATHCOOLE,GLEBE,CARNMONEY,BALLYDUFF,ABBEY,FAIRVIEW,MONKSTOWN",3462785,10030,"2,307",Belfast North,-5.93074938,54.67819277,0,"N08000101,N08000106,N08000111,N08000112,N08000118,N08000120,N08000126,N08000128,N08000131","[1110.0967546710735, 520.3230279053095, 523.0848986512957, 0.0, 1428.931444277573, 1495.158445645707, 2559.9271094076116, 1222.6631396807622, 1169.8151898885937]","1110.0967546710735, 520.3230279053095, 523.0848986512957, 0.0, 1428.931444277573, 1495.158445645707, 2559.9271094076116, 1222.6631396807622, 1169.8151898885937",East Antrim,1290.663693,"1,016"
N08000114,COLLINBRIDGE,"VALLEY,HIGHTOWN,GLEBE,CAVEHILL,LEGONIEL,GLENGORMLEY,BELLEVUE,MALLUSK",4328358,9601,"2,245",Belfast North,-5.96616686,54.65795959,0,"N08000114,N08000120,N08000121,N08000125,N08000139,N08000309,N08000336,N08000123,N08000314","[0.0, 728.1762814613918, 916.336681585578, 523.7139030648358, 462.5927989893764, 1307.598029121489, 2092.4317863907013, 1558.3319150215132, 1955.4830313647901]","0.0, 728.1762814613918, 916.336681585578, 523.7139030648358, 462.5927989893764, 1307.598029121489, 2092.4317863907013, 1558.3319150215132, 1955.4830313647901",Belfast North West,1146.670155,"1,098"
N08000120,GLEBE,"O'NEILL,VALLEY,COLLINBRIDGE,CARNMONEY,CARNMONEY HILL,GLENGORMLEY",790096,5038,"2,331",Belfast North,-5.94689633,54.67152848,0,"N08000111,N08000112,N08000114,N08000120,N08000121,N08000128,N08000139","[383.66268432466035, 1508.5838762671665, 743.4634836920491, 0.0, 1299.2239187900864, 203.85320160374891, 899.2128298484187]","383.66268432466035, 1508.5838762671665, 743.4634836920491, 0.0, 1299.2239187900864, 203.85320160374891, 899.2128298484187",Glenshane,1169.901782,"1,161"
N08000121,GLENGORMLEY,"COLLINBRIDGE,HIGHTOWN,GLEBE,CARNMONEY,BALLYHENRY",779807,4842,"2,373",Belfast North,-5.9588066,54.67471519,0,"N08000107,N08000111,N08000114,N08000120,N08000121,N08000123","[691.1042714387039, 689.8328153649204, 903.4890184061136, 1254.6676487162033, 0.0, 1285.6961298737233]","691.1042714387039, 689.8328153649204, 903.4890184061136, 1254.6676487162033, 0.0, 1285.6961298737233",East Antrim,1147.87266,"1,225"
N08000126,MONKSTOWN,"BALLYDUFF,ABBEY,ROSTULLA,CARNMONEY HILL,JORDANSTOWN",1494586,5805,"2,286",Belfast North,-5.91066354,54.68467273,0,"N08000101,N08000106,N08000112,N08000124,N08000126,N08000132","[606.7836831544425, 1399.9833370989534, 2531.5173874536777, 452.31446144122316, 0.0, 814.4011081089722]","606.7836831544425, 1399.9833370989534, 2531.5173874536777, 452.31446144122316, 0.0, 814.4011081089722",East Antrim,1818.962456,467
N08000128,O'NEILL,"RATHCOOLE,WHITEHOUSE,VALLEY,GLEBE,CARNMONEY HILL",906579,5721,"2,194",Belfast North,-5.9251456,54.66574776,0,"N08000112,N08000120,N08000128,N08000131,N08000139,N08000140","[1199.6427314864598, 198.23502999290093, 0.0, 1227.8929479081758, 2124.6749899956803, 970.5542664151294]","1199.6427314864598, 198.23502999290093, 0.0, 1227.8929479081758, 2124.6749899956803, 970.5542664151294",East Antrim,1098.432557,"1,096"
N08000131,RATHCOOLE,"O'NEILL,WHITEHOUSE,ABBEY,CARNMONEY HILL",660238,3825,"2,155",Belfast North,-5.91713866,54.67073485,0,"N08000101,N08000112,N08000128,N08000131,N08000140","[66.64511739119112, 1240.735010230461, 1327.3247064305538, 0.0, 1190.2952066055273]","66.64511739119112, 1240.735010230461, 1327.3247064305538, 0.0, 1190.2952066055273",East Antrim,1088.503974,"1,066"
N08000139,VALLEY,"O'NEILL,WHITEHOUSE,COLLINBRIDGE,GLEBE,DUNCAIRN,BELLEVUE",2490291,10620,"2,280",Belfast North,-5.92460975,54.65726522,0.017770526,"N08000114,N08000120,N08000128,N08000139,N08000140,N08000309,N08000322,out","[469.5430790595308, 893.9556152443992, 2172.116444249291, 0.0, 2065.215057800336, 3150.909671432077, 445.480403078523, 1422.7796993554005]","469.5430790595308, 893.9556152443992, 2172.116444249291, 0.0, 2065.215057800336, 3150.909671432077, 445.480403078523, 1422.7796993554005",Belfast North West,1141.584647,"1,138"
N08000140,WHITEHOUSE,"O'NEILL,RATHCOOLE,VALLEY,ABBEY",1615268,7845,"2,155",Belfast North,-5.90698547,54.66512311,0.019944357,"N08000101,N08000128,N08000131,N08000139,N08000140,out","[1774.026635367359, 1042.178971024473, 1182.3893089712544, 2169.1878734484426, 0.0, 1677.2172478658206]","1774.026635367359, 1042.178971024473, 1182.3893089712544, 2169.1878734484426, 0.0, 1677.2172478658206",East Antrim,1011.50637,"1,143"
N08000302,ARDOYNE,"WOODVALE,CLIFTONVILLE,WATER WORKS,FORTH RIVER,LEGONIEL",536160,3127,"3,666",Belfast North,-5.9591026,54.61562896,0,"N08000302,N08000317,N08000327,N08000336,N08000357,N08000360","[0.0, 1460.3788150705473, 224.80546609243203, 247.82659905709224, 718.748371116858, 587.6434538273473]","0.0, 1460.3788150705473, 224.80546609243203, 247.82659905709224, 718.748371116858, 587.6434538273473",Belfast North West,1810.996532,"1,855"
N08000306,BALLYSILLAN,"CLIFTONVILLE,CHICHESTER PARK,CAVEHILL,LEGONIEL",1052404,5180,"3,389",Belfast North,-5.96651219,54.62947482,0,"N08000306,N08000316,N08000317,N08000336,N08000314","[0.0, 762.9098982270513, 1508.2323463799826, 1910.5286150923075, 1015.2448238251035]","0.0, 762.9098982270513, 1508.2323463799826, 1910.5286150923075, 1015.2448238251035",Belfast North West,1672.337051,"1,717"
N08000309,BELLEVUE,"VALLEY,COLLINBRIDGE,CAVEHILL,INNISFAYLE,DUNCAIRN",3330002,8988,"3,509",Belfast North,-5.9366848,54.6509189,0,"N08000114,N08000139,N08000309,N08000322,N08000332,N08000314","[1325.62176050305, 3147.0579848795655, 0.0, 530.0933933655351, 1379.5509867522649, 2603.5806919755114]","1325.62176050305, 3147.0579848795655, 0.0, 530.0933933655351, 1379.5509867522649, 2603.5806919755114",Belfast North West,1736.215124,"1,773"
N08000316,CHICHESTER PARK,"CLIFTONVILLE,CAVEHILL,WATER WORKS,FORTWILLIAM,INNISFAYLE,BALLYSILLAN",1177656,6253,"3,742",Belfast North,-5.94743791,54.62807507,0,"N08000306,N08000316,N08000317,N08000328,N08000332,N08000314,N08000357","[747.6344733402639, 0.0, 970.599539442738, 809.5314287748715, 226.19036552553968, 1958.7429845427025, 1490.5809229745944]","747.6344733402639, 0.0, 970.599539442738, 809.5314287748715, 226.19036552553968, 1958.7429845427025, 1490.5809229745944",Belfast North West,1929.558992,"1,812"
N08000317,CLIFTONVILLE,"ARDOYNE,CHICHESTER PARK,WATER WORKS,LEGONIEL,BALLYSILLAN",1135670,5515,"3,635",Belfast North,-5.95850986,54.62143588,0,"N08000302,N08000306,N08000316,N08000317,N08000336,N08000357","[1555.268391523891, 1425.0842485147857, 935.8285733668401, 0.0, 642.9384057202824, 955.8803951050821]","1555.268391523891, 1425.0842485147857, 935.8285733668401, 0.0, 642.9384057202824, 955.8803951050821",Belfast North West,1849.876682,"1,785"
N08000322,DUNCAIRN,"VALLEY,WATER WORKS,FORTWILLIAM,NEW LODGE,INNISFAYLE,SYDENHAM,BELLEVUE,CENTRAL,BALLYMACARRETT",9573650,16931,"3,998",Belfast North,-5.90924599,54.62677768,0.039194068,"N08000139,N08000304,N08000309,N08000315,N08000322,N08000328,N08000332,N08000340,N08000353,N08000357,out","[466.62890278222795, 260.46617421030044, 555.9383467700948, 1067.1786921916853, 0.0, 2178.8322623764384, 1607.1161032241814, 2160.3033412217196, 4838.0834460168735, 509.4448158543605, 3287.0079400914656]","466.62890278222795, 260.46617421030044, 555.9383467700948, 1067.1786921916853, 0.0, 2178.8322623764384, 1607.1161032241814, 2160.3033412217196, 4838.0834460168735, 509.4448158543605, 3287.0079400914656",Belfast North West,1948.280531,"2,050"
N08000328,FORTWILLIAM,"CHICHESTER PARK,WATER WORKS,INNISFAYLE,DUNCAIRN",876011,4451,"3,368",Belfast North,-5.93215993,54.62595484,0,"N08000316,N08000322,N08000328,N08000332,N08000357","[808.5014927594115, 2197.3933304646234, 0.0, 1410.309410562479, 34.795776167215294]","808.5014927594115, 2197.3933304646234, 0.0, 1410.309410562479, 34.795776167215294",Belfast North West,1693.185196,"1,675"
N08000332,INNISFAYLE,"CHICHESTER PARK,CAVEHILL,FORTWILLIAM,DUNCAIRN,BELLEVUE",1271273,5582,"3,750",Belfast North,-5.92870242,54.6356512,0,"N08000309,N08000316,N08000322,N08000328,N08000332,N08000314","[1490.3632150993612, 230.73705040918014, 1655.4931180319109, 1440.4909234625773, 0.0, 759.1220190011079]","1490.3632150993612, 230.73705040918014, 1655.4931180319109, 1440.4909234625773, 0.0, 759.1220190011079",Belfast North West,1950.035165,"1,800"
N08000336,LEGONIEL,"COLLINBRIDGE,ARDOYNE,CLIFTONVILLE,CAVEHILL,FORTH RIVER,BALLYSILLAN,MALLUSK,CLADY",8570256,16452,"3,648",Belfast North,-5.99047766,54.6355155,0,"N08000114,N08000125,N08000302,N08000306,N08000317,N08000327,N08000336,N08000113,N08000314","[2193.604962973026, 7.811740301030253, 267.28964222885594, 1828.1853611209144, 651.1240849889625, 9608.636703100165, 0.0, 4881.486378896549, 1016.8633130028518]","2193.604962973026, 7.811740301030253, 267.28964222885594, 1828.1853611209144, 651.1240849889625, 9608.636703100165, 0.0, 4881.486378896549, 1016.8633130028518",Belfast North West,1781.946495,"1,866"
N08000340,NEW LODGE,"WATER WORKS,SHANKILL,DUNCAIRN,CENTRAL",715829,3990,"3,367",Belfast North,-5.93178126,54.60819331,0,"N08000315,N08000322,N08000340,N08000348,N08000357","[302.59154011021496, 2167.55150012217, 0.0, 828.2708169973768, 691.5861771373809]","302.59154011021496, 2167.55150012217, 0.0, 828.2708169973768, 691.5861771373809",Belfast North West,1671.637738,"1,695"
N08000123,HIGHTOWN,"COLLINBRIDGE,BALLYHENRY,GLENGORMLEY,MALLUSK",895574,5273,"2,130",Belfast North,-5.97084735,54.66995696,0.001071681,"N08000107,N08000114,N08000121,N08000125,N08000123,out","[773.9501653226814, 1540.4766763726968, 1289.037917440714, 1585.9708591254712, 0.0, 83.56441238105954]","773.9501653226814, 1540.4766763726968, 1289.037917440714, 1585.9708591254712, 0.0, 83.56441238105954",South Antrim,1225.897146,904
N08000314,CAVEHILL,"COLLINBRIDGE,CHICHESTER PARK,INNISFAYLE,LEGONIEL,BALLYSILLAN,BELLEVUE",3121875,9338,"3,311",Belfast North,-5.95226275,54.64077847,0,"N08000114,N08000306,N08000309,N08000316,N08000332,N08000336,N08000314","[2033.9413462984548, 963.8617059140828, 2671.2224007163186, 1897.6028650224307, 720.9351953948756, 1008.8807621644578, 0.0]","2033.9413462984548, 963.8617059140828, 2671.2224007163186, 1897.6028650224307, 720.9351953948756, 1008.8807621644578, 0.0",Belfast North West,1720.444086,"1,591"
N08000357,WATER WORKS,"WOODVALE,ARDOYNE,CLIFTONVILLE,CHICHESTER PARK,SHANKILL,FORTWILLIAM,NEW LODGE,DUNCAIRN",1360955,6206,"3,899",Belfast North,-5.94415255,54.61517183,0,"N08000302,N08000316,N08000317,N08000322,N08000328,N08000340,N08000348,N08000357,N08000360","[784.486202125367, 1472.9241859566405, 979.6527657596563, 508.3453728844078, 34.42740205665862, 687.7860205545559, 1433.9412389672239, 0.0, 304.43679821521465]","784.486202125367, 1472.9241859566405, 979.6527657596563, 508.3453728844078, 34.42740205665862, 687.7860205545559, 1433.9412389672239, 0.0, 304.43679821521465",Belfast North West,2006.005431,"1,893"
N08000311,BELVOIR,"ROSETTA,STRANMILLIS,DRUMBO,BEECHILL,NEWTOWNBREDA,GALWALLY,UPPER MALONE",5463194,14490,"3,491",Belfast South,-5.93732792,54.55176273,0,"N08000311,N08000735,N08000345,N08000352,N08000356,N08000706,N08000714,N08000717","[0.0, 870.1036793484477, 1183.9833212721398, 2614.058777863581, 4462.990616432613, 2026.395808163514, 2839.811741513596, 465.9970774565108]","0.0, 870.1036793484477, 1183.9833212721398, 2614.058777863581, 4462.990616432613, 2026.395808163514, 2839.811741513596, 465.9970774565108",Belfast East,1767.152762,"1,724"
N08000312,BLACKSTAFF,"MALONE,BEECHMOUNT,FALLS,WINDSOR,CENTRAL,MUSGRAVE,FALLS PARK",2563619,9090,"3,993",Belfast South,-5.95596939,54.58273164,0,"N08000307,N08000312,N08000315,N08000324,N08000325,N08000337,N08000339,N08000358","[439.24725810465833, 0.0, 1365.5149091608214, 1195.3411881470658, 1559.7474637518503, 931.4608302250244, 1112.3663790506862, 2486.321972231585]","439.24725810465833, 0.0, 1365.5149091608214, 1195.3411881470658, 1559.7474637518503, 931.4608302250244, 1112.3663790506862, 2486.321972231585",Belfast South West,1882.197853,"2,111"
N08000315,CENTRAL,"SHANKILL,NEW LODGE,DUNCAIRN,STRANMILLIS,FALLS,BLACKSTAFF,WINDSOR,ORMEAU,WOODSTOCK,BALLYMACARRETT",2808206,9605,"4,773",Belfast South,-5.92828481,54.59096987,0,"N08000304,N08000312,N08000315,N08000322,N08000324,N08000340,N08000342,N08000348,N08000352,N08000358,N08000359","[790.7392547647404, 1408.0691994176716, 0.0, 1075.5670083456923, 1447.0214721140117, 303.95019140922574, 1859.714030294993, 152.8115216377334, 1173.952113150159, 775.0559863507791, 618.1191831875165]","790.7392547647404, 1408.0691994176716, 0.0, 1075.5670083456923, 1447.0214721140117, 303.95019140922574, 1859.714030294993, 152.8115216377334, 1173.952113150159, 775.0559863507791, 618.1191831875165",Belfast South West,2184.9799,"2,588"
N08000321,CREGAGH,"ROSETTA,RAVENHILL,GALWALLY,MEROK,HILLFOOT",846090,4224,"3,212",Belfast South,-5.90049327,54.57232034,0,"N08000321,N08000338,N08000331,N08000344,N08000345,N08000717","[0.0, 887.1215256261386, 1055.8961604315227, 994.8726865439222, 1199.784042239183, 77.70534119794901]","0.0, 887.1215256261386, 1055.8961604315227, 994.8726865439222, 1199.784042239183, 77.70534119794901",Belfast East,2050.266802,"1,162"
N08000326,FINAGHY,"LADYBROOK,DUNMURRY,MUSGRAVE,DRUMBO,LAMBEG,UPPER MALONE",2590901,7408,"3,449",Belfast South,-5.98666961,54.55008488,0,"N08000323,N08000326,N08000334,N08000339,N08000728,N08000356,N08000714","[1486.8891766678514, 0.0, 161.14472335575002, 1751.7524591634294, 0.0, 2417.8432229945565, 1590.370381027877]","1486.8891766678514, 0.0, 161.14472335575002, 1751.7524591634294, 0.0, 2417.8432229945565, 1590.370381027877",Belfast South West,1519.542825,"1,929"
N08000337,MALONE,"STRANMILLIS,BLACKSTAFF,WINDSOR,MUSGRAVE,UPPER MALONE",2060472,6805,"3,428",Belfast South,-5.96080631,54.56556178,0,"N08000312,N08000337,N08000339,N08000352,N08000356,N08000358","[910.7157081976802, 0.0, 1776.240870023188, 649.2415394105752, 2464.466127939533, 1004.3357175825195]","910.7157081976802, 0.0, 1776.240870023188, 649.2415394105752, 2464.466127939533, 1004.3357175825195",Belfast South West,1575.444507,"1,853"
N08000339,MUSGRAVE,"MALONE,BLACKSTAFF,LADYBROOK,FINAGHY,FALLS PARK,ANDERSONSTOWN,UPPER MALONE",1703930,7387,"3,506",Belfast South,-5.98055851,54.56576317,0,"N08000301,N08000312,N08000325,N08000326,N08000334,N08000337,N08000339,N08000356","[1158.109771155909, 1113.56413188129, 90.00412365919807, 1526.3074868943834, 751.9063895483483, 1818.6578758693165, 0.0, 928.4502580623591]","1158.109771155909, 1113.56413188129, 90.00412365919807, 1526.3074868943834, 751.9063895483483, 1818.6578758693165, 0.0, 928.4502580623591",Belfast South West,1584.704857,"1,921"
N08000342,ORMEAU,"ROSETTA,STRANMILLIS,CENTRAL,WOODSTOCK,RAVENHILL",1462607,6289,"3,655",Belfast South,-5.91856129,54.58125859,0,"N08000315,N08000342,N08000344,N08000345,N08000352,N08000359","[1934.4576173513842, 0.0, 941.1455562541333, 2049.2967756710773, 332.84198766678776, 1031.258088594565]","1934.4576173513842, 0.0, 941.1455562541333, 2049.2967756710773, 332.84198766678776, 1031.258088594565",Belfast East,1694.846074,"1,960"
N08000735,NEWTOWNBREDA,"BEECHILL,GALWALLY,BELVOIR,KNOCKBRACKEN",750389,4589,"2,052",Belfast South,-5.9105707,54.55422748,0,"N08000311,N08000735,N08000724,N08000706,N08000717","[873.5765544259909, 0.0, 1319.9272878024285, 1518.9025223530073, 871.0443627953593]","873.5765544259909, 0.0, 1319.9272878024285, 1518.9025223530073, 871.0443627953593",West Down,939.3233825,"1,113"
N08000724,KNOCKBRACKEN,"MONEYREAGH,CARRYDUFF EAST,CARRYDUFF WEST,BEECHILL,CAIRNSHILL,NEWTOWNBREDA,GALWALLY",3527222,10955,"2,511",Belfast South,-5.89094759,54.53775624,0.001377246,"N08000735,N08000724,N08000734,N08000706,N08000708,N08000710,N08000711,N08000717,out","[1372.594567240745, 0.0, 2502.658850075385, 1627.3289933574886, 2750.946762880372, 904.8164780806165, 1519.783914796728, 160.034799687553, 116.8356477503688]","1372.594567240745, 0.0, 2502.658850075385, 1627.3289933574886, 2750.946762880372, 904.8164780806165, 1519.783914796728, 160.034799687553, 116.8356477503688",West Down,1238.256388,"1,273"
N08000734,MONEYREAGH,"BALLYHANWOOD,BALLYGOWAN,COMBER WEST,CARRYDUFF EAST,CAIRNSHILL,GALWALLY,KNOCKBRACKEN,SHANDON,HILLFOOT",25074382,26284,"2,132",Belfast South,-5.8473943,54.53985852,0,"N08001102,N08001115,N08000702,N08000724,N08000734,N08000347,N08000331,N08000708,N08000710,N08000717","[6070.4890288982215, 1362.5248520256034, 6832.860041762634, 2390.8391967938846, 0.0, 0.0, 1912.5727725777679, 1804.123243265784, 5352.137905331335, 541.6665895756349]","6070.4890288982215, 1362.5248520256034, 6832.860041762634, 2390.8391967938846, 0.0, 0.0, 1912.5727725777679, 1804.123243265784, 5352.137905331335, 541.6665895756349",Strangford,1755.544264,376
N08000344,RAVENHILL,"ROSETTA,ORMEAU,WOODSTOCK,CREGAGH,ORANGEFIELD,MEROK",1026449,4735,"3,210",Belfast South,-5.9049301,54.58119355,0,"N08000321,N08000338,N08000341,N08000342,N08000344,N08000345,N08000359","[949.1113270271089, 401.5563478957196, 719.8782464682824, 885.3189259499698, 0.0, 750.5811565392702, 1028.5540038597824]","949.1113270271089, 401.5563478957196, 719.8782464682824, 885.3189259499698, 0.0, 750.5811565392702, 1028.5540038597824",Belfast East,1441.397812,"1,769"
N08000345,ROSETTA,"STRANMILLIS,ORMEAU,CREGAGH,RAVENHILL,GALWALLY,BELVOIR",1110256,6296,"3,730",Belfast South,-5.91571873,54.57139377,0,"N08000311,N08000321,N08000342,N08000344,N08000345,N08000352,N08000717","[1165.7997969866612, 1107.225569541831, 1864.7953854441087, 726.0742481261881, 0.0, 665.4191131300233, 766.6858857727851]","1165.7997969866612, 1107.225569541831, 1864.7953854441087, 726.0742481261881, 0.0, 665.4191131300233, 766.6858857727851",Belfast East,1776.37325,"1,954"
N08000352,STRANMILLIS,"MALONE,ROSETTA,WINDSOR,ORMEAU,CENTRAL,BELVOIR,UPPER MALONE",2466502,8157,"3,914",Belfast South,-5.93778092,54.56876398,0,"N08000311,N08000315,N08000337,N08000342,N08000345,N08000352,N08000356,N08000358","[2657.911965282717, 1147.4575169573034, 669.2707639246868, 312.76006073260794, 687.1350848096004, 0.0, 1578.5525551946257, 1103.9120125360832]","2657.911965282717, 1147.4575169573034, 669.2707639246868, 312.76006073260794, 687.1350848096004, 0.0, 1578.5525551946257, 1103.9120125360832",Belfast South West,1806.692044,"2,107"
N08000356,UPPER MALONE,"MALONE,STRANMILLIS,FINAGHY,MUSGRAVE,DRUMBO,BELVOIR",4320618,14719,"3,522",Belfast South,-5.96482879,54.54924236,0,"N08000311,N08000326,N08000337,N08000339,N08000352,N08000356,N08000714","[4563.925182982613, 2133.1978670806393, 2555.0870897349214, 940.1396002746574, 1587.6192076474413, 0.0, 2939.0310510343097]","4563.925182982613, 2133.1978670806393, 2555.0870897349214, 940.1396002746574, 1587.6192076474413, 0.0, 2939.0310510343097",Belfast South West,1607.782862,"1,914"
N08000358,WINDSOR,"MALONE,STRANMILLIS,BLACKSTAFF,CENTRAL",1380298,5697,"4,163",Belfast South,-5.94679856,54.57990333,0,"N08000312,N08000315,N08000337,N08000352,N08000358","[2642.429617953914, 798.8248806410209, 1091.7086157903047, 1164.0368633556795, 0.0]","2642.429617953914, 798.8248806410209, 1091.7086157903047, 1164.0368633556795, 0.0",Belfast South West,1904.580088,"2,258"
N08000359,WOODSTOCK,"ORMEAU,CENTRAL,ORANGEFIELD,RAVENHILL,BALLYMACARRETT,BEERSBRIDGE",666059,4003,"3,420",Belfast South,-5.90809193,54.59055917,0,"N08000304,N08000308,N08000315,N08000341,N08000342,N08000344,N08000359","[461.75830338657744, 949.7982615538006, 586.7919341291056, 65.59471342473455, 941.1660003844447, 997.8907768341837, 0.0]","461.75830338657744, 949.7982615538006, 586.7919341291056, 65.59471342473455, 941.1660003844447, 997.8907768341837, 0.0",Belfast East,1600.302039,"1,820"
N08000706,BEECHILL,"CARRYDUFF WEST,DRUMBO,NEWTOWNBREDA,BELVOIR,KNOCKBRACKEN",2870747,7859,"2,416",Belfast South,-5.91573501,54.54313701,0,"N08000311,N08000735,N08000724,N08000706,N08000711,N08000714","[2027.5365257981764, 1513.7158105706096, 1559.5436608763396, 0.0, 1466.2734218987641, 1226.7660341199617]","2027.5365257981764, 1513.7158105706096, 1559.5436608763396, 0.0, 1466.2734218987641, 1226.7660341199617",West Down,1130.796185,"1,285"
N08000708,CAIRNSHILL,"MONEYREAGH,GALWALLY,KNOCKBRACKEN",834752,5485,"2,414",Belfast South,-5.89112527,54.54983414,0.001013205,"N08000724,N08000734,N08000708,N08000717,out","[2633.4535064064553, 1807.8440185270274, 0.0, 961.4205273641521, 82.28198290576948]","2633.4535064064553, 1807.8440185270274, 0.0, 961.4205273641521, 82.28198290576948",Strangford,1089.550927,"1,324"
N08000710,CARRYDUFF EAST,"SAINTFIELD,BALLYGOWAN,MONEYREAGH,BALLYMACBRENNAN,CARRYDUFF WEST,KNOCKBRACKEN",12622681,21294,"2,513",Belfast South,-5.86457398,54.50005656,0,"N08001036,N08001102,N08000724,N08000734,N08000704,N08000710,N08000711","[5895.20175425083, 2302.283055106139, 885.9729865570516, 5485.782185734183, 3651.322255803904, 0.0, 3019.8068818530605]","5895.20175425083, 2302.283055106139, 885.9729865570516, 5485.782185734183, 3651.322255803904, 0.0, 3019.8068818530605",Strangford,1358.803917,"1,154"
N08000711,CARRYDUFF WEST,"CARRYDUFF EAST,BALLYMACBRENNAN,DRUMBO,BEECHILL,KNOCKBRACKEN",4227448,13469,"2,354",Belfast South,-5.90365307,54.52197365,0,"N08000724,N08000704,N08000706,N08000710,N08000711,N08000714","[1535.4403948970855, 703.8348340877367, 1545.7665505436557, 3115.8052846088963, 0.0, 6580.1450648227465]","1535.4403948970855, 703.8348340877367, 1545.7665505436557, 3115.8052846088963, 0.0, 6580.1450648227465",West Down,1093.059243,"1,261"
N08000714,DRUMBO,"DUNMURRY,FINAGHY,BALLYMACBRENNAN,CARRYDUFF WEST,BEECHILL,BELVOIR,LAMBEG,HILLHALL,UPPER MALONE,RAVERNET",23733213,29017,"2,224",Belfast South,-5.94917318,54.51659441,0,"N08000311,N08000323,N08000326,N08000722,N08000728,N08000737,N08000356,N08000704,N08000706,N08000711,N08000714","[2834.706446722213, 0.0, 1369.642680176169, 5547.093458608943, 1589.2414731257961, 3388.9896013913126, 2868.8653999474295, 3967.5635682359575, 1223.871652196489, 6227.025697897403, 0.0]","2834.706446722213, 0.0, 1369.642680176169, 5547.093458608943, 1589.2414731257961, 3388.9896013913126, 2868.8653999474295, 3967.5635682359575, 1223.871652196489, 6227.025697897403, 0.0",West Down,1868.087867,356
N08000717,GALWALLY,"MONEYREAGH,ROSETTA,CREGAGH,CAIRNSHILL,NEWTOWNBREDA,BELVOIR,KNOCKBRACKEN,HILLFOOT",1078086,5474,"2,340",Belfast South,-5.90150759,54.55997535,0,"N08000311,N08000321,N08000735,N08000724,N08000734,N08000331,N08000345,N08000708,N08000717","[462.3780022827186, 72.26358072626047, 860.8436518813407, 152.09192936089113, 538.8589156831985, 1626.8054873094052, 772.5970556021655, 954.4686310217303, 0.0]","462.3780022827186, 72.26358072626047, 860.8436518813407, 152.09192936089113, 538.8589156831985, 1626.8054873094052, 772.5970556021655, 954.4686310217303, 0.0",Strangford,1096.167685,"1,244"
N08000301,ANDERSONSTOWN,"STEWARTSTOWN,LADYBROOK,SHAW'S ROAD,MUSGRAVE,FALLS PARK",977865,5110,"3,644",Belfast West,-5.98962421,54.573836,0,"N08000301,N08000325,N08000334,N08000339,N08000350,N08000349","[0.0, 1254.3836477504872, 702.6180889610869, 1173.0544584950173, 532.9370666048278, 1393.0617684158726]","0.0, 1254.3836477504872, 702.6180889610869, 1173.0544584950173, 532.9370666048278, 1393.0617684158726",Belfast South West,709.8089829,"2,934"
N08000303,BALLYGOMARTIN,"WOODVALE,FORTH RIVER,CLONARD,COLLIN GLEN,TURF LODGE,BALLYMURPHY",2750945,9187,"4,032",Belfast West,-5.98447565,54.60626544,0.022731251,"N08000303,N08000305,N08000318,N08000319,N08000327,N08000354,N08000360,out","[0.0, 351.62129468412996, 556.5233682623139, 551.8083922018003, 3801.7867900728816, 835.8313009818812, 1311.9881531868298, 1777.4406823492134]","0.0, 351.62129468412996, 556.5233682623139, 551.8083922018003, 3801.7867900728816, 835.8313009818812, 1311.9881531868298, 1777.4406823492134",Belfast North West,776.3715575,"3,256"
N08000305,BALLYMURPHY,"BALLYGOMARTIN,BEECHMOUNT,CLONARD,TURF LODGE,FALLS PARK",810292,4676,"3,382",Belfast West,-5.978713,54.5951194,0.008261863,"N08000303,N08000305,N08000307,N08000318,N08000325,N08000354,out","[361.2928536351863, 0.0, 937.4280246213315, 312.876008485605, 993.9962032019012, 1406.611949569289, 663.7949525783786]","361.2928536351863, 0.0, 937.4280246213315, 312.876008485605, 993.9962032019012, 1406.611949569289, 663.7949525783786",Belfast South West,641.8065386,"2,740"
N08000307,BEECHMOUNT,"FALLS,CLONARD,BLACKSTAFF,FALLS PARK,BALLYMURPHY",861871,5096,"3,533",Belfast West,-5.96546927,54.59110978,0,"N08000305,N08000307,N08000312,N08000318,N08000324,N08000325","[937.3951291692831, 0.0, 430.5232483983504, 1509.500395746699, 808.9219287428076, 1409.6593099628724]","937.3951291692831, 0.0, 430.5232483983504, 1509.500395746699, 808.9219287428076, 1409.6593099628724",Belfast North West,727.2345603,"2,806"
N08000318,CLONARD,"WOODVALE,SHANKILL,BALLYGOMARTIN,BEECHMOUNT,FALLS,BALLYMURPHY",784682,4200,"3,703",Belfast West,-5.96271385,54.59854439,0.001527655,"N08000303,N08000305,N08000307,N08000318,N08000324,N08000348,N08000360,out","[546.727309466658, 299.1406428889307, 1443.28344985475, 0.0, 697.3841714082234, 337.914809214171, 758.1992942241061, 117.35034752836943]","546.727309466658, 299.1406428889307, 1443.28344985475, 0.0, 697.3841714082234, 337.914809214171, 758.1992942241061, 117.35034752836943",Belfast North West,765.6312575,"2,937"
N08000319,COLLIN GLEN,"BALLYGOMARTIN,FORTH RIVER,POLEGLASS,STEWARTSTOWN,SHAW'S ROAD,TURF LODGE,STONYFORD,CLADY",9556145,15540,"3,898",Belfast West,-6.02388951,54.59466322,0.021484622,"N08000303,N08000319,N08000327,N08000738,N08000113,N08000343,N08000350,N08000349,N08000354,out","[578.6528823327371, 0.0, 437.1388251253627, 2386.9286857559982, 2355.8725242767614, 2199.783259673329, 1647.3104676325274, 1677.3587731264952, 2495.265296897996, 1761.6892944701453]","578.6528823327371, 0.0, 437.1388251253627, 2386.9286857559982, 2355.8725242767614, 2199.783259673329, 1647.3104676325274, 1677.3587731264952, 2495.265296897996, 1761.6892944701453",Belfast South West,726.8509477,"3,171"
N08000323,DUNMURRY,"LADYBROOK,TWINBROOK,FINAGHY,DRUMBO,LAMBEG,DERRYAGHY",1904384,7102,"3,839",Belfast West,-6.00342908,54.55270573,0,"N08000323,N08000326,N08000334,N08000728,N08000355,N08000712,N08000714","[0.0, 1383.5187327215963, 1492.6433869116897, 2096.0037109310047, 1441.9017936028895, 1258.8282730321064, 0.0]","0.0, 1383.5187327215963, 1492.6433869116897, 2096.0037109310047, 1441.9017936028895, 1258.8282730321064, 0.0",Belfast South West,1390.049615,"2,449"
N08000324,FALLS,"SHANKILL,BEECHMOUNT,CLONARD,BLACKSTAFF,CENTRAL",1100001,5624,"3,258",Belfast West,-5.94794956,54.59639091,0,"N08000307,N08000312,N08000315,N08000318,N08000324,N08000348","[788.8798785335101, 1142.5723337678014, 1341.3411330034737, 711.308430103045, 0.0, 1639.898217252322]","788.8798785335101, 1142.5723337678014, 1341.3411330034737, 711.308430103045, 0.0, 1639.898217252322",Belfast North West,612.5238895,"2,645"
N08000325,FALLS PARK,"BEECHMOUNT,BLACKSTAFF,SHAW'S ROAD,TURF LODGE,MUSGRAVE,BALLYMURPHY,ANDERSONSTOWN",2209267,7731,"3,661",Belfast West,-5.97847567,54.58313418,0,"N08000301,N08000305,N08000307,N08000312,N08000325,N08000339,N08000349,N08000354","[1221.8998810296912, 1001.6661628625734, 1420.5864953678586, 1540.6193747613243, 0.0, 88.80472934293223, 691.3710952656395, 1766.0522803253264]","1221.8998810296912, 1001.6661628625734, 1420.5864953678586, 1540.6193747613243, 0.0, 88.80472934293223, 691.3710952656395, 1766.0522803253264",Belfast South West,622.3910155,"3,039"
N08000327,FORTH RIVER,"WOODVALE,ARDOYNE,BALLYGOMARTIN,LEGONIEL,COLLIN GLEN,CLADY",4334454,12366,"3,148",Belfast West,-5.99651949,54.61715018,0,"N08000302,N08000303,N08000319,N08000327,N08000336,N08000113,N08000360","[229.84522958304683, 3811.345462365985, 417.9074555058779, 0.0, 9108.695589515733, 1.4725445416734217, 959.2307173602719]","229.84522958304683, 3811.345462365985, 417.9074555058779, 0.0, 9108.695589515733, 1.4725445416734217, 959.2307173602719",Belfast North West,836.7095235,"2,311"
N08000334,LADYBROOK,"POLEGLASS,STEWARTSTOWN,DUNMURRY,TWINBROOK,FINAGHY,MUSGRAVE,ANDERSONSTOWN",1104638,6214,"3,673",Belfast West,-6.00392863,54.56439563,0,"N08000301,N08000323,N08000326,N08000334,N08000339,N08000343,N08000350,N08000355","[705.5345325567984, 1421.629129172462, 142.80808164877863, 0.0, 764.7705801135576, 319.0745694398635, 1807.1435490699089, 1071.6388274685305]","705.5345325567984, 1421.629129172462, 142.80808164877863, 0.0, 764.7705801135576, 319.0745694398635, 1807.1435490699089, 1071.6388274685305",Belfast South West,677.6657956,"2,995"
N08000335,LAGMORE,"POLEGLASS,TWINBROOK,DERRYAGHY,WHITE MOUNTAIN,STONYFORD",2171862,7357,"4,434",Belfast West,-6.04187332,54.55427412,0,"N08000335,N08000738,N08000740,N08000343,N08000355,N08000712","[0.0, 557.2131272137606, 505.977486306578, 2610.4571493025346, 936.6495728798936, 5323.068252247596]","0.0, 557.2131272137606, 505.977486306578, 2610.4571493025346, 936.6495728798936, 5323.068252247596",Belfast South West,834.2750095,"3,600"
N08000728,LAMBEG,"DUNMURRY,FINAGHY,DRUMBO,HARMONY HILL,HILDEN,HILLHALL,DERRYAGHY",4368023,11236,"2,332",Belfast West,-6.01151608,54.53183598,0.00473318,"N08000323,N08000326,N08000720,N08000721,N08000722,N08000728,N08000712,N08000714,out","[2110.452701949125, 0.0, 532.2596540741473, 1700.2702314376527, 2433.3954576526753, 0.0, 2313.0852625729876, 1728.9041147257033, 417.6325361003043]","2110.452701949125, 0.0, 532.2596540741473, 1700.2702314376527, 2433.3954576526753, 0.0, 2313.0852625729876, 1728.9041147257033, 417.6325361003043",South Antrim,1981.827574,350
N08000343,POLEGLASS,"COLLIN GLEN,STEWARTSTOWN,LADYBROOK,TWINBROOK,LAGMORE,STONYFORD",3008603,10660,"3,685",Belfast West,-6.03362838,54.56763748,0,"N08000319,N08000334,N08000335,N08000738,N08000343,N08000350,N08000355","[2249.639178106625, 320.58174982544625, 2718.2486764982314, 3198.8070617003286, 0.0, 1700.2557751422821, 681.2435695286437]","2249.639178106625, 320.58174982544625, 2718.2486764982314, 3198.8070617003286, 0.0, 1700.2557751422821, 681.2435695286437",Belfast South West,738.4165204,"2,947"
N08000348,SHANKILL,"WOODVALE,WATER WORKS,NEW LODGE,FALLS,CLONARD,CENTRAL",1111745,5032,"4,051",Belfast West,-5.94679156,54.60509815,0,"N08000315,N08000318,N08000324,N08000340,N08000348,N08000357,N08000360","[140.0299792147734, 340.7169599648033, 1621.1289099317125, 762.4000626679041, 0.0, 1327.1954321763153, 840.5286612859788]","140.0299792147734, 340.7169599648033, 1621.1289099317125, 762.4000626679041, 0.0, 1327.1954321763153, 840.5286612859788",Belfast North West,1336.852488,"2,714"
N08000349,SHAW'S ROAD,"COLLIN GLEN,STEWARTSTOWN,TURF LODGE,FALLS PARK,ANDERSONSTOWN",1743378,6226,"3,826",Belfast West,-6.00179544,54.58037683,0,"N08000301,N08000319,N08000325,N08000350,N08000349,N08000354","[1395.9537861931283, 1703.7821113854443, 711.2243999007443, 857.0458468167632, 0.0, 1567.523012512266]","1395.9537861931283, 1703.7821113854443, 711.2243999007443, 857.0458468167632, 0.0, 1567.523012512266",Belfast South West,722.9795019,"3,103"
N08000354,TURF LODGE,"BALLYGOMARTIN,COLLIN GLEN,SHAW'S ROAD,FALLS PARK,BALLYMURPHY",2367724,8955,"3,475",Belfast West,-5.99746943,54.59311932,0.009092925,"N08000303,N08000305,N08000319,N08000325,N08000349,N08000354,out","[883.4266682769572, 1446.9115194483143, 2515.0045867127787, 1802.7393968313074, 1555.420757860456, 0.0, 751.4970539003555]","883.4266682769572, 1446.9115194483143, 2515.0045867127787, 1802.7393968313074, 1555.420757860456, 0.0, 751.4970539003555",Belfast South West,694.3477504,"2,781"
N08000355,TWINBROOK,"POLEGLASS,LADYBROOK,DUNMURRY,LAGMORE,DERRYAGHY",1414160,5476,"3,350",Belfast West,-6.01933894,54.55490263,0,"N08000323,N08000334,N08000335,N08000343,N08000355,N08000712","[1428.959204843466, 1115.070525737922, 1010.082969392816, 705.5206156306962, 0.0, 1963.0467006032634]","1428.959204843466, 1115.070525737922, 1010.082969392816, 705.5206156306962, 0.0, 1963.0467006032634",Belfast South West,630.5417018,"2,719"
N08000360,WOODVALE,"ARDOYNE,WATER WORKS,SHANKILL,BALLYGOMARTIN,FORTH RIVER,CLONARD",841179,4356,"3,122",Belfast West,-5.96070072,54.60717784,0,"N08000302,N08000303,N08000318,N08000327,N08000348,N08000357,N08000360","[644.9836457850166, 1411.9738188091872, 830.6015619291163, 1029.743952818853, 913.2199026123069, 306.1424193757029, 0.0]","644.9836457850166, 1411.9738188091872, 830.6015619291163, 1029.743952818853, 913.2199026123069, 306.1424193757029, 0.0",Belfast North West,1459.515263,"1,662"
N08000712,DERRYAGHY,"DUNMURRY,TWINBROOK,MAGHERALAVE,HARMONY HILL,LAGMORE,LAMBEG,WHITE MOUNTAIN",3409254,11854,"2,681",Belfast West,-6.03348103,54.54337978,0,"N08000323,N08000335,N08000720,N08000728,N08000731,N08000740,N08000355,N08000712","[1165.1865523131444, 5361.505685738934, 131.28619365843355, 2126.361207120628, 2344.410689858782, 751.166128526884, 1833.4769664992543, 0.0]","1165.1865523131444, 5361.505685738934, 131.28619365843355, 2126.361207120628, 2344.410689858782, 751.166128526884, 1833.4769664992543, 0.0",South Antrim,2264.640639,416
N08000437,TORR HEAD and RATHLIN,"LURIGETHAN,LOUGHGUILE and STRANOCUM,BALLYCASTLE,KINBANE",253010505,133454,"2,571",Causeway,-6.17011035,55.14675502,1.161902911,"N08000437,N08000404,N08000425,N08000426,N08000427,out","[0.0, 3533.5691701323085, 18225.358284809816, 9052.40429669809, 9875.040122228444, 92767.62813470764]","0.0, 3533.5691701323085, 18225.358284809816, 9052.40429669809, 9875.040122228444, 92767.62813470764",Dalriada,1974.821485,596
N08000401,AGHADOWEY,"RASHARKIN,GARVAGH,KILREA,ROUTE,MACOSQUIN,DUNDOOAN,WINDY HALL,MAGILLIGAN,DRUMSURN",118728161,67151,"2,537",Causeway,-6.69756854,55.04331935,0,"N08000401,N08000414,N08000415,N08000419,N08000424,N08000428,N08000429,N08000434,N08000436,N08000440","[0.0, 5008.823955684827, 3110.00104431679, 9841.061408821686, 10517.078561973904, 24727.93735104064, 4140.758789622115, 4344.569940405333, 3292.1307045622775, 2168.638261347654]","0.0, 5008.823955684827, 3110.00104431679, 9841.061408821686, 10517.078561973904, 24727.93735104064, 4140.758789622115, 4344.569940405333, 3292.1307045622775, 2168.638261347654",Glenshane,1572.698054,964
N08000402,ALTAHULLION,"BALLYKELLY,COOLESSAN,GREYSTONE,DRUMSURN,DUNGIVEN,FEENY",64293211,59923,"2,210",Causeway,-6.96421481,54.97390437,0,"N08000402,N08000405,N08000412,N08000414,N08000416,N08000418,N08000422","[0.0, 15301.04229488854, 2724.7620247331415, 12835.318666652272, 12806.454638330073, 14260.203893003998, 1995.2185006203365]","0.0, 15301.04229488854, 2724.7620247331415, 12835.318666652272, 12806.454638330073, 14260.203893003998, 1995.2185006203365",Glenshane,1313.729519,896
N08000403,ATLANTIC,"HOPEFIELD,PORTSTEWART,DUNDOOAN",5353051,17555,"2,513",Causeway,-6.68782831,55.18880025,0.092891675,"N08000403,N08000415,N08000423,N08000432,out","[0.0, 6025.3597054662905, 1502.877964064162, 2506.337044380658, 7520.425256244302]","0.0, 6025.3597054662905, 1502.877964064162, 2506.337044380658, 7520.425256244302",Dalriada,1476.21601,"1,037"
N08000404,BALLYCASTLE,"KINBANE,TORR HEAD and RATHLIN",2346068,9806,"2,380",Causeway,-6.25083992,55.2035768,0.039397138,"N08000437,N08000404,N08000425,out","[3514.020847797954, 0.0, 3163.869167052192, 3128.1100180852172]","3514.020847797954, 0.0, 3163.869167052192, 3128.1100180852172",Dalriada,1830.559681,549
N08000405,BALLYKELLY,"ALTAHULLION,MAGILLIGAN,ROESIDE,COOLESSAN,CLAUDY,GREYSTEEL,FEENY",57095317,48664,"2,326",Causeway,-7.01834703,55.01786904,0.044066066,"N08000402,N08000405,N08000412,N08000418,N08000421,N08000429,N08000435,N08000509,out","[15496.10798184628, 0.0, 138.10532113624606, 3367.0704766215563, 14651.024350547139, 6949.044868539046, 1346.9102194223499, 3105.3868251209715, 3610.349977244271]","15496.10798184628, 0.0, 138.10532113624606, 3367.0704766215563, 14651.024350547139, 6949.044868539046, 1346.9102194223499, 3105.3868251209715, 3610.349977244271",Glenshane,1388.960298,937
N08000406,BALLYMONEY EAST,"BALLYMONEY SOUTH,DERVOCK,BALLYMONEY NORTH,ROUTE",997823,4648,"2,195",Causeway,-6.50691183,55.0742083,0,"N08000406,N08000407,N08000408,N08000413,N08000436","[0.0, 1814.6955365689366, 1675.5229705793743, 356.85636901086565, 790.541255581439]","0.0, 1814.6955365689366, 1675.5229705793743, 356.85636901086565, 790.541255581439",Dalriada,1654.138521,541
N08000407,BALLYMONEY NORTH,"BALLYMONEY SOUTH,BALLYMONEY EAST,ROUTE",3594281,8708,"2,504",Causeway,-6.52894435,55.07313273,0,"N08000406,N08000407,N08000408,N08000436","[1668.4899286564726, 0.0, 367.85483015720564, 6671.655207551101]","1668.4899286564726, 0.0, 367.85483015720564, 6671.655207551101",Dalriada,1840.925977,663
N08000408,BALLYMONEY SOUTH,"CLOGH MILLS,DUNLOY,DERVOCK,BALLYMONEY NORTH,BALLYMONEY EAST,ROUTE",7958144,13731,"2,232",Causeway,-6.48660461,55.05723868,0,"N08000406,N08000407,N08000408,N08000411,N08000413,N08000417,N08000436","[1648.8220008615167, 393.71325120951644, 0.0, 1562.6322762480572, 3291.6526363790576, 4655.3112742555095, 2173.410662153458]","1648.8220008615167, 393.71325120951644, 0.0, 1562.6322762480572, 3291.6526363790576, 4655.3112742555095, 2173.410662153458",Dalriada,1691.687588,540
N08000409,CASTLEROCK,"PORTSTEWART,UNIVERSITY,MACOSQUIN,DUNDOOAN,WATERSIDE",18128149,25688,"2,566",Causeway,-6.74637895,55.15218584,0.058030684,"N08000409,N08000415,N08000428,N08000432,N08000438,N08000439,out","[0.0, 3066.872385034152, 11548.48201305913, 3214.8198172199754, 1547.8421054413488, 2070.695132453786, 4239.288576980801]","0.0, 3066.872385034152, 11548.48201305913, 3214.8198172199754, 1547.8421054413488, 2070.695132453786, 4239.288576980801",Dalriada,1515.827481,"1,050"
N08000410,CHURCHLAND,"MACOSQUIN,MOUNTSANDEL,WATERSIDE",1576650,5827,"2,615",Causeway,-6.67942158,55.11910408,0,"N08000410,N08000428,N08000430,N08000439","[0.0, 3400.488489522514, 845.5712039397325, 1580.9402861367184]","0.0, 3400.488489522514, 845.5712039397325, 1580.9402861367184",Dalriada,1568.983406,"1,046"
N08000412,COOLESSAN,"BALLYKELLY,ALTAHULLION,ROESIDE,GREYSTONE",1131066,5509,"2,059",Causeway,-6.94745263,55.04096852,0,"N08000402,N08000405,N08000412,N08000422,N08000435","[2776.9389335627075, 138.9781560785834, 0.0, 1232.875814686718, 1360.2071367103536]","2776.9389335627075, 138.9781560785834, 0.0, 1232.875814686718, 1360.2071367103536",Glenshane,1245.196368,814
N08000413,DERVOCK,"LOUGHGUILE and STRANOCUM,DUNLOY,BALLYMONEY SOUTH,BALLYMONEY EAST,GIANT'S CAUSEWAY,ROUTE,DUNDOOAN",61742566,50932,"2,408",Causeway,-6.47451229,55.11009005,0,"N08000406,N08000408,N08000413,N08000415,N08000417,N08000420,N08000426,N08000436","[363.12935302666284, 3403.756741313022, 0.0, 5311.493251679004, 6956.889554634323, 13221.333297569245, 10256.027607948414, 11403.160050933644]","363.12935302666284, 3403.756741313022, 0.0, 5311.493251679004, 6956.889554634323, 13221.333297569245, 10256.027607948414, 11403.160050933644",Dalriada,1775.836972,632
N08000414,DRUMSURN,"GARVAGH,AGHADOWEY,ALTAHULLION,MAGILLIGAN,GREYSTONE,DUNGIVEN",44177748,44040,"2,370",Causeway,-6.871926,55.01037912,0,"N08000401,N08000402,N08000414,N08000416,N08000419,N08000422,N08000429","[4864.911873422597, 12544.909155699508, 0.0, 9477.683029409927, 1569.0375041529749, 1996.0092887284507, 13587.449116187749]","4864.911873422597, 12544.909155699508, 0.0, 9477.683029409927, 1569.0375041529749, 1996.0092887284507, 13587.449116187749",Glenshane,1388.502839,981
N08000415,DUNDOOAN,"DERVOCK,GIANT'S CAUSEWAY,HOPEFIELD,ATLANTIC,PORTRUSH and DUNLUCE,QUARRY,CASTLEROCK,PORTSTEWART,UNIVERSITY,AGHADOWEY,ROUTE,MOUNTSANDEL,WINDY HALL",78160131,54192,"2,468",Causeway,-6.60849214,55.15035009,0,"N08000401,N08000403,N08000409,N08000413,N08000415,N08000420,N08000423,N08000430,N08000431,N08000432,N08000433,N08000436,N08000438,N08000440","[3076.306684523725, 5993.100029941648, 3380.606029854508, 5287.039015774852, 0.0, 3216.441708291216, 3028.602936150009, 835.9888609126455, 10165.306329526178, 3149.2061596074004, 2583.5970993379397, 5902.004222901296, 3490.903983045085, 4118.547494112216]","3076.306684523725, 5993.100029941648, 3380.606029854508, 5287.039015774852, 0.0, 3216.441708291216, 3028.602936150009, 835.9888609126455, 10165.306329526178, 3149.2061596074004, 2583.5970993379397, 5902.004222901296, 3490.903983045085, 4118.547494112216",Dalriada,1471.928039,996
N08000420,GIANT'S CAUSEWAY,"LOUGHGUILE and STRANOCUM,KINBANE,DERVOCK,PORTRUSH and DUNLUCE,DUNDOOAN",86053779,67703,"2,453",Causeway,-6.46201238,55.1954598,0.318314524,"N08000413,N08000415,N08000420,N08000425,N08000426,N08000431,out","[13632.821891173948, 3331.887361247319, 0.0, 16001.520276111072, 1800.1850737580664, 6384.096782689104, 26552.48864635686]","13632.821891173948, 3331.887361247319, 0.0, 16001.520276111072, 1800.1850737580664, 6384.096782689104, 26552.48864635686",Dalriada,1799.818367,653
N08000421,GREYSTEEL,"BALLYKELLY,CLAUDY,EGLINTON",36115203,38748,"2,917",Causeway,-7.09789908,55.02104267,0.156032587,"N08000405,N08000421,N08000509,N08000517,out","[14304.383320797026, 0.0, 6077.070780433205, 5885.1983717124185, 12481.347563903853]","14304.383320797026, 0.0, 6077.070780433205, 5885.1983717124185, 12481.347563903853",Glenshane,1752.340574,"1,165"
N08000422,GREYSTONE,"ALTAHULLION,MAGILLIGAN,ROESIDE,COOLESSAN,DRUMSURN",1124333,8105,"2,329",Causeway,-6.93229875,55.04298661,0,"N08000402,N08000412,N08000414,N08000422,N08000429,N08000435","[2025.912006431434, 1228.3204903076257, 2073.632581213127, 0.0, 602.4417417607027, 2159.0281085684023]","2025.912006431434, 1228.3204903076257, 2073.632581213127, 0.0, 602.4417417607027, 2159.0281085684023",Glenshane,1403.689941,925
N08000423,HOPEFIELD,"ATLANTIC,PORTRUSH and DUNLUCE,DUNDOOAN",2087375,7344,"2,534",Causeway,-6.64783194,55.19080831,0.003686881,"N08000403,N08000415,N08000423,N08000431,out","[1465.3343067005442, 2968.839996218673, 0.0, 2618.795727700371, 291.02995544901]","1465.3343067005442, 2968.839996218673, 0.0, 2618.795727700371, 291.02995544901",Dalriada,1539.124546,995
N08000425,KINBANE,"LOUGHGUILE and STRANOCUM,BALLYCASTLE,TORR HEAD and RATHLIN,GIANT'S CAUSEWAY",83135640,55841,"2,584",Causeway,-6.33550142,55.19033796,0.187560276,"N08000437,N08000404,N08000420,N08000425,N08000426,out","[18325.750647955327, 3198.9943853172813, 15400.143961844775, 0.0, 3858.600486989429, 15057.510503033367]","18325.750647955327, 3198.9943853172813, 15400.143961844775, 0.0, 3858.600486989429, 15057.510503033367",Dalriada,1904.507992,679
N08000428,MACOSQUIN,"CASTLEROCK,AGHADOWEY,CHURCHLAND,MOUNTSANDEL,WATERSIDE,WINDY HALL,MAGILLIGAN",88943998,57171,"2,407",Causeway,-6.76196395,55.11150541,0.027419367,"N08000401,N08000409,N08000410,N08000428,N08000429,N08000430,N08000439,N08000440,out","[24125.02202185742, 12555.513848212755, 3295.869646511256, 0.0, 12755.56082129344, 508.81475038718077, 1460.3346361512333, 292.1629096689817, 2177.7213369216965]","24125.02202185742, 12555.513848212755, 3295.869646511256, 0.0, 12755.56082129344, 508.81475038718077, 1460.3346361512333, 292.1629096689817, 2177.7213369216965",Glenshane,1408.70472,998
N08000429,MAGILLIGAN,"AGHADOWEY,MACOSQUIN,BALLYKELLY,ROESIDE,GREYSTONE,DRUMSURN",144987043,67830,"2,271",Causeway,-6.90775912,55.10225336,0.318784604,"N08000401,N08000405,N08000414,N08000422,N08000428,N08000429,N08000435,out","[4171.933427309711, 6956.689025975796, 14094.710442242234, 601.5393374171307, 13172.771803548243, 0.0, 2685.478464607841, 26146.877539026176]","4171.933427309711, 6956.689025975796, 14094.710442242234, 601.5393374171307, 13172.771803548243, 0.0, 2685.478464607841, 26146.877539026176",Glenshane,1364.899338,906
N08000430,MOUNTSANDEL,"QUARRY,UNIVERSITY,MACOSQUIN,DUNDOOAN,CHURCHLAND,WATERSIDE,WINDY HALL",3042517,9223,"2,601",Causeway,-6.66189229,55.12729973,0,"N08000410,N08000415,N08000428,N08000430,N08000433,N08000438,N08000439,N08000440","[864.9808767440201, 870.2395701432799, 537.0160882011028, 0.0, 2092.1021897509268, 1173.5014324428057, 1337.8088062634665, 2366.0461835057504]","864.9808767440201, 870.2395701432799, 537.0160882011028, 0.0, 2092.1021897509268, 1173.5014324428057, 1337.8088062634665, 2366.0461835057504",Dalriada,1549.027818,"1,052"
N08000431,PORTRUSH and DUNLUCE,"GIANT'S CAUSEWAY,HOPEFIELD,DUNDOOAN",20697266,37856,"2,242",Causeway,-6.57825183,55.19988294,0.245570523,"N08000415,N08000420,N08000423,N08000431,out","[9924.524281899781, 6016.917604884456, 2608.2330797346244, 0.0, 19306.325024762456]","9924.524281899781, 6016.917604884456, 2608.2330797346244, 0.0, 19306.325024762456",Dalriada,1324.145347,918
N08000432,PORTSTEWART,"ATLANTIC,CASTLEROCK,DUNDOOAN",3764157,17601,"2,203",Causeway,-6.73098032,55.17187322,0.117482633,"N08000403,N08000409,N08000415,N08000432,out","[2353.1823745032148, 3345.0534333382993, 2972.683401549053, 0.0, 8930.08078179221]","2353.1823745032148, 3345.0534333382993, 2972.683401549053, 0.0, 8930.08078179221",Dalriada,1302.450326,901
N08000433,QUARRY,"UNIVERSITY,DUNDOOAN,MOUNTSANDEL",1722599,6853,"2,582",Causeway,-6.65257094,55.13995712,0,"N08000415,N08000430,N08000433,N08000438","[2723.039656946105, 2118.233029963183, 0.0, 2022.2132957232782]","2723.039656946105, 2118.233029963183, 0.0, 2022.2132957232782",Dalriada,1565.771152,"1,016"
N08000435,ROESIDE,"BALLYKELLY,MAGILLIGAN,COOLESSAN,GREYSTONE",2106211,7325,"2,114",Causeway,-6.94421678,55.05180145,0,"N08000405,N08000412,N08000422,N08000429,N08000435","[1304.4888277675918, 1309.093395625245, 2085.602389169533, 2598.040492253655, 0.0]","1304.4888277675918, 1309.093395625245, 2085.602389169533, 2598.040492253655, 0.0",Glenshane,1220.574891,893
N08000436,ROUTE,"CLOGH MILLS,RASHARKIN,BALLYMONEY SOUTH,DERVOCK,BALLYMONEY NORTH,BALLYMONEY EAST,AGHADOWEY,DUNDOOAN",33079291,37582,"2,336",Causeway,-6.54746474,55.08428792,0,"N08000401,N08000406,N08000407,N08000408,N08000411,N08000413,N08000415,N08000434,N08000436","[3178.494815561733, 781.5624180183171, 7173.8601150023605, 2183.5218107144697, 1951.263688933463, 11078.89496575106, 5760.69470262468, 5473.707449735529, 0.0]","3178.494815561733, 781.5624180183171, 7173.8601150023605, 2183.5218107144697, 1951.263688933463, 11078.89496575106, 5760.69470262468, 5473.707449735529, 0.0",Dalriada,1755.003845,581
N08000438,UNIVERSITY,"QUARRY,CASTLEROCK,DUNDOOAN,MOUNTSANDEL,WATERSIDE",2723715,8253,"2,154",Causeway,-6.67211807,55.14867354,0,"N08000409,N08000415,N08000430,N08000433,N08000438,N08000439","[1638.8638612413756, 3353.1676624622323, 1082.8359187625827, 1842.9567736150573, 0.0, 359.8632602265077]","1638.8638612413756, 3353.1676624622323, 1082.8359187625827, 1842.9567736150573, 0.0, 359.8632602265077",Dalriada,1322.604937,831
N08000439,WATERSIDE,"CASTLEROCK,UNIVERSITY,MACOSQUIN,CHURCHLAND,MOUNTSANDEL",2115838,7371,"2,944",Causeway,-6.68234954,55.13359578,0,"N08000409,N08000410,N08000428,N08000430,N08000438,N08000439","[2411.586542358078, 1641.4259082209874, 1564.3340045161021, 1357.8242057410152, 395.8293352686781, 0.0]","2411.586542358078, 1641.4259082209874, 1564.3340045161021, 1357.8242057410152, 395.8293352686781, 0.0",Dalriada,1740.673612,"1,203"
N08000440,WINDY HALL,"AGHADOWEY,MACOSQUIN,DUNDOOAN,MOUNTSANDEL",2914100,8606,"2,760",Causeway,-6.64127912,55.11464355,0,"N08000401,N08000415,N08000428,N08000430,N08000440","[2091.746956978596, 4016.0306098588712, 288.8466163521179, 2216.347310427277, 0.0]","2091.746956978596, 4016.0306098588712, 288.8466163521179, 2216.347310427277, 0.0",Dalriada,1693.627505,"1,066"
N08000104,BALLYCLARE EAST,"BALLYROBERT,BALLYCLARE WEST,BALLYNURE",1827581,8186,"2,590",East Antrim,-5.99610597,54.75428426,0,"N08000104,N08000105,N08000108,N08000109","[0.0, 2504.2123324102063, 3543.1262041186988, 2138.661426952118]","0.0, 2504.2123324102063, 3543.1262041186988, 2138.661426952118",West Antrim,1900.945294,689
N08000105,BALLYCLARE WEST,"BALLYROBERT,BALLYCLARE EAST,DOAGH,BALLYNURE",1780972,8309,"2,651",East Antrim,-6.01419819,54.75429106,0,"N08000104,N08000105,N08000108,N08000109,N08000117","[2512.5831597945876, 0.0, 743.9444231764221, 1241.2770571583294, 3811.195342322213]","2512.5831597945876, 0.0, 743.9444231764221, 1241.2770571583294, 3811.195342322213",West Antrim,1941.547846,709
N08000106,BALLYDUFF,"FAIRVIEW,MONKSTOWN,CARNMONEY HILL,JORDANSTOWN,MOSSLEY,BALLYNURE",1042037,5162,"2,348",East Antrim,-5.92712282,54.6913434,0,"N08000106,N08000108,N08000112,N08000118,N08000124,N08000126,N08000127","[0.0, 142.48749348324827, 463.4669312738116, 782.3024578157882, 2187.410003356955, 1261.0004948258959, 325.3326243905541]","0.0, 142.48749348324827, 463.4669312738116, 782.3024578157882, 2187.410003356955, 1261.0004948258959, 325.3326243905541",West Antrim,1736.913455,611
N08000108,BALLYNURE,"BALLYDUFF,WOODBURN,JORDANSTOWN,MOSSLEY,BALLYROBERT,BALLYCLARE EAST,BALLYCLARE WEST,DOAGH,KILWAUGHTER,PARKGATE,GLENWHIRRY",43173196,45074,"2,528",East Antrim,-5.94773847,54.747775,0,"N08000104,N08000105,N08000106,N08000108,N08000109,N08000117,N08000124,N08000127,N08000129,N08000822,N08000829,N08000840","[3661.9210518671484, 766.3259864648554, 163.53305273407958, 0.0, 6498.256912085628, 1764.2801998344587, 3984.876776125833, 5200.777413964903, 922.3795098580135, 4080.5445418612826, 8004.889466041659, 10026.215101857606]","3661.9210518671484, 766.3259864648554, 163.53305273407958, 0.0, 6498.256912085628, 1764.2801998344587, 3984.876776125833, 5200.777413964903, 922.3795098580135, 4080.5445418612826, 8004.889466041659, 10026.215101857606",West Antrim,1848.917198,679
N08000109,BALLYROBERT,"MOSSLEY,MALLUSK,BALLYCLARE EAST,BALLYCLARE WEST,DOAGH,BALLYNURE,TEMPLEPATRICK",16550257,23660,"2,470",East Antrim,-6.01001225,54.72427798,0,"N08000104,N08000105,N08000108,N08000109,N08000117,N08000125,N08000127,N08000137","[2195.5760764111824, 1270.0648214808157, 6454.77303018247, 0.0, 3335.1005919734384, 2252.705551243528, 3592.659132380189, 4559.1208034527135]","2195.5760764111824, 1270.0648214808157, 6454.77303018247, 0.0, 3335.1005919734384, 2252.705551243528, 3592.659132380189, 4559.1208034527135",West Antrim,1796.269366,674
N08000118,FAIRVIEW,"CARNMONEY,BALLYDUFF,CARNMONEY HILL,MOSSLEY",554960,3318,"2,136",East Antrim,-5.94112573,54.6870712,0,"N08000106,N08000111,N08000112,N08000118,N08000127","[820.4669684880375, 586.4015403628714, 1334.883931276391, 0.0, 576.2475746035288]","820.4669684880375, 586.4015403628714, 1334.883931276391, 0.0, 576.2475746035288",West Antrim,1558.408255,578
N08000124,JORDANSTOWN,"BALLYDUFF,MONKSTOWN,ROSTULLA,WOODBURN,BALLYNURE,GREENISLAND,GORTALEE",6172349,11500,"2,456",East Antrim,-5.91220746,54.70208787,0,"N08000106,N08000108,N08000124,N08000126,N08000132,N08000823,N08000825,N08000840","[2415.9545585699234, 3834.817200725855, 0.0, 449.97815551160977, 1427.9447823376343, 522.8267573099049, 918.2337868320164, 1930.2447722169654]","2415.9545585699234, 3834.817200725855, 0.0, 449.97815551160977, 1427.9447823376343, 522.8267573099049, 918.2337868320164, 1930.2447722169654",East Antrim,1916.543092,539
N08000127,MOSSLEY,"CARNMONEY,BALLYDUFF,FAIRVIEW,BURNTHILL,MALLUSK,BALLYROBERT,BALLYNURE",7006622,14868,"2,520",East Antrim,-5.9699715,54.7051479,0,"N08000106,N08000108,N08000109,N08000110,N08000111,N08000118,N08000125,N08000127","[362.1790251017572, 5044.697724071466, 3508.316751337947, 1862.2222665027973, 218.81610160978127, 611.6716930743053, 3260.096426021948, 0.0]","362.1790251017572, 5044.697724071466, 3508.316751337947, 1862.2222665027973, 218.81610160978127, 611.6716930743053, 3260.096426021948, 0.0",West Antrim,1866.874592,653
N08000132,ROSTULLA,"ABBEY,MONKSTOWN,JORDANSTOWN,GORTALEE",2516931,7310,"2,459",East Antrim,-5.88630639,54.68782854,0.024614795,"N08000101,N08000124,N08000126,N08000132,N08000823,out","[1061.7758207350169, 1433.9850602677188, 813.6217066936813, 0.0, 2059.5733629164856, 1941.0440562371248]","1061.7758207350169, 1433.9850602677188, 813.6217066936813, 0.0, 2059.5733629164856, 1941.0440562371248",East Antrim,1934.730514,524
N08000805,BALLYCARRY and GLYNN,"WHITEHEAD SOUTH,KILROOT,WOODBURN,ISLANDMAGEE,CURRAN and INVER,KILWAUGHTER",45687201,35093,"2,621",East Antrim,-5.78970915,54.80091684,0,"N08000805,N08000817,N08000826,N08000828,N08000829,N08000839,N08000840","[0.0, 4302.049642883469, 7005.51216308314, 7410.924776157361, 5451.623445182869, 3959.324908448821, 6963.565066627517]","0.0, 4302.049642883469, 7005.51216308314, 7410.924776157361, 5451.623445182869, 3959.324908448821, 6963.565066627517",East Antrim,2081.391324,540
N08000807,BONEYBEFORE,"KILROOT,LOVE LANE,VICTORIA",913990,5205,"2,395",East Antrim,-5.78630532,54.72727153,0.013794301,"N08000807,N08000828,N08000831,N08000838,out","[0.0, 1901.1153372163462, 1200.0379801414967, 956.7163640211995, 1147.1303089236965]","0.0, 1901.1153372163462, 1200.0379801414967, 956.7163640211995, 1147.1303089236965",East Antrim,1856.495636,539
N08000810,BURLEIGH HILL,"WOODBURN,SUNNYLANDS,LOVE LANE,VICTORIA",1137263,4982,"2,240",East Antrim,-5.8202882,54.72894898,0,"N08000810,N08000831,N08000836,N08000838,N08000840","[0.0, 74.42095308382085, 1593.8850202211731, 722.4628299645854, 2591.2312039243766]","0.0, 74.42095308382085, 1593.8850202211731, 722.4628299645854, 2591.2312039243766",East Antrim,1791.835973,448
N08000811,CAIRNCASTLE,"THE MAIDENS,CARNLOUGH and GLENARM,KILWAUGHTER,CRAIGYHILL,GARDENMORE,SLEMISH",32177179,30181,"2,635",East Antrim,-5.89071302,54.87756221,0.081921122,"N08000811,N08000812,N08000815,N08000820,N08000829,N08000835,N08000837,out","[0.0, 8266.27536676848, 2962.8627056143787, 1033.6510264284975, 8126.716067606723, 2652.897778760513, 895.6570264794123, 6242.939992220522]","0.0, 8266.27536676848, 2962.8627056143787, 1033.6510264284975, 8126.716067606723, 2652.897778760513, 895.6570264794123, 6242.939992220522",East Antrim,2102.979768,532
N08000812,CARNLOUGH and GLENARM,"LURIGETHAN,CAIRNCASTLE,SLEMISH",110433025,62605,"2,257",East Antrim,-5.9844211,54.96247649,0.279141878,"N08000811,N08000812,N08000835,N08000427,out","[8809.687189371984, 0.0, 18263.017987118943, 12861.388491709953, 22670.9063182637]","8809.687189371984, 0.0, 18263.017987118943, 12861.388491709953, 22670.9063182637",East Antrim,1769.703903,487
N08000813,CASTLE,"SUNNYLANDS,LOVE LANE,GREENISLAND",1311177,7613,"2,694",East Antrim,-5.81246464,54.71513874,0.037245265,"N08000813,N08000825,N08000831,N08000836,out","[0.0, 1440.6291394152274, 1280.2156248892215, 2084.470316414305, 2807.684912217052]","0.0, 1440.6291394152274, 1280.2156248892215, 2084.470316414305, 2807.684912217052",East Antrim,2088.260963,606
N08000815,CRAIGYHILL,"KILWAUGHTER,CAIRNCASTLE,GARDENMORE",1782345,7024,"2,572",East Antrim,-5.84888724,54.85786585,0,"N08000811,N08000815,N08000820,N08000829","[3118.8140056825364, 0.0, 1595.7528456441257, 2309.43314883676]","3118.8140056825364, 0.0, 1595.7528456441257, 2309.43314883676",East Antrim,2047.923838,524
N08000817,CURRAN and INVER,"BALLYCARRY and GLYNN,ISLANDMAGEE,THE MAIDENS,KILWAUGHTER,GARDENMORE",4662506,13748,"2,509",East Antrim,-5.81068499,54.8459652,0.0202809,"N08000805,N08000817,N08000820,N08000826,N08000829,N08000837,out","[4310.27315961702, 0.0, 1754.8785088377574, 2531.929064819206, 1813.4250142548574, 1697.2595810670384, 1640.234673336427]","4310.27315961702, 0.0, 1754.8785088377574, 2531.929064819206, 1813.4250142548574, 1697.2595810670384, 1640.234673336427",East Antrim,1989.804295,519
N08000820,GARDENMORE,"CURRAN and INVER,THE MAIDENS,KILWAUGHTER,CAIRNCASTLE,CRAIGYHILL",1752157,7070,"2,512",East Antrim,-5.82902531,54.85767786,0,"N08000811,N08000815,N08000817,N08000820,N08000829,N08000837","[1096.832344696539, 1608.6219404681456, 1754.6393236793294, 0.0, 631.1670040397602, 1978.7393476516406]","1096.832344696539, 1608.6219404681456, 1754.6393236793294, 0.0, 631.1670040397602, 1978.7393476516406",East Antrim,1957.889392,554
N08000823,GORTALEE,"ROSTULLA,JORDANSTOWN,GREENISLAND",1167768,6024,"2,369",East Antrim,-5.8760827,54.69558757,0.008938129,"N08000124,N08000132,N08000823,N08000825,out","[538.1546818254981, 2111.0249708559554, 0.0, 2652.3801168872205, 722.4402022215579]","538.1546818254981, 2111.0249708559554, 0.0, 2652.3801168872205, 722.4402022215579",East Antrim,1856.568298,512
N08000825,GREENISLAND,"WOODBURN,CASTLE,SUNNYLANDS,JORDANSTOWN,GORTALEE",6292898,14588,"2,385",East Antrim,-5.85800746,54.70670596,0.047285365,"N08000124,N08000813,N08000823,N08000825,N08000836,N08000840,out","[927.150177825404, 1515.226895455873, 2601.8560416604496, 0.0, 6.458172258150461, 5788.187208370652, 3749.121486801256]","927.150177825404, 1515.226895455873, 2601.8560416604496, 0.0, 6.458172258150461, 5788.187208370652, 3749.121486801256",East Antrim,1843.745189,541
N08000826,ISLANDMAGEE,"WHITEHEAD SOUTH,BALLYCARRY and GLYNN,CURRAN and INVER",32721916,36238,"2,377",East Antrim,-5.73302605,54.81765988,0.260688689,"N08000805,N08000817,N08000826,N08000839,out","[7487.492589916529, 2700.963229911641, 0.0, 3558.578771243655, 22490.965445867594]","7487.492589916529, 2700.963229911641, 0.0, 3558.578771243655, 22490.965445867594",East Antrim,1891.479077,486
N08000828,KILROOT,"WHITEHEAD SOUTH,WOODBURN,BALLYCARRY and GLYNN,BONEYBEFORE,VICTORIA",19250781,24500,"2,906",East Antrim,-5.77723627,54.75223927,0.070844748,"N08000805,N08000807,N08000828,N08000838,N08000839,N08000840,out","[7796.92000358147, 1941.4914723475829, 0.0, 1071.826815943862, 2388.956662682554, 5284.252276747668, 6016.552731607199]","7796.92000358147, 1941.4914723475829, 0.0, 1071.826815943862, 2388.956662682554, 5284.252276747668, 6016.552731607199",East Antrim,2307.285038,599
N08000829,KILWAUGHTER,"WOODBURN,BALLYCARRY and GLYNN,CURRAN and INVER,BALLYNURE,CAIRNCASTLE,CRAIGYHILL,GARDENMORE,GLENWHIRRY,SLEMISH",64553856,41601,"2,962",East Antrim,-5.91357101,54.8204258,0,"N08000108,N08000805,N08000811,N08000815,N08000817,N08000820,N08000822,N08000829,N08000835,N08000840","[7932.180211695092, 5460.719501282098, 8622.540328533038, 2327.8103484019443, 1812.985137520372, 631.0999210676708, 10640.934898773807, 0.0, 662.0855610647011, 3510.6440533680425]","7932.180211695092, 5460.719501282098, 8622.540328533038, 2327.8103484019443, 1812.985137520372, 631.0999210676708, 10640.934898773807, 0.0, 662.0855610647011, 3510.6440533680425",East Antrim,2319.326206,643
N08000831,LOVE LANE,"CASTLE,SUNNYLANDS,BONEYBEFORE,BURLEIGH HILL,VICTORIA",1195384,5079,"2,466",East Antrim,-5.79943412,54.72337668,0.012807084,"N08000807,N08000810,N08000813,N08000831,N08000836,N08000838,out","[1163.1525145678618, 74.63974718151347, 1368.864782385698, 0.0, 236.97997989043398, 1203.065190573257, 1032.297779823122]","1163.1525145678618, 74.63974718151347, 1368.864782385698, 0.0, 236.97997989043398, 1203.065190573257, 1032.297779823122",East Antrim,1981.043634,485
N08000836,SUNNYLANDS,"WOODBURN,CASTLE,LOVE LANE,BURLEIGH HILL,GREENISLAND",823657,4268,"2,668",East Antrim,-5.81944845,54.72160076,0,"N08000810,N08000813,N08000825,N08000831,N08000836,N08000840","[1464.9140524369113, 2042.4590867964316, 6.016470615652824, 217.16602504776552, 0.0, 537.4444019218026]","1464.9140524369113, 2042.4590867964316, 6.016470615652824, 217.16602504776552, 0.0, 537.4444019218026",East Antrim,2161.964387,506
N08000837,THE MAIDENS,"CURRAN and INVER,CAIRNCASTLE,GARDENMORE",1413875,6439,"2,548",East Antrim,-5.81666503,54.86322519,0.019343578,"N08000811,N08000817,N08000820,N08000837,out","[988.5729940601651, 1765.1831287691589, 2058.2081142900124, 0.0, 1627.035731333144]","988.5729940601651, 1765.1831287691589, 2058.2081142900124, 0.0, 1627.035731333144",East Antrim,2008.052392,540
N08000838,VICTORIA,"KILROOT,WOODBURN,LOVE LANE,BONEYBEFORE,BURLEIGH HILL",1659445,5663,"2,671",East Antrim,-5.80092015,54.73416221,0,"N08000807,N08000810,N08000828,N08000831,N08000838,N08000840","[935.8614293864664, 731.2689167695627, 1026.658348073642, 1214.1597586328505, 0.0, 1755.0515549695297]","935.8614293864664, 731.2689167695627, 1026.658348073642, 1214.1597586328505, 0.0, 1755.0515549695297",East Antrim,498.9997306,"2,172"
N08000839,WHITEHEAD SOUTH,"KILROOT,BALLYCARRY and GLYNN,ISLANDMAGEE",7702656,13896,"2,563",East Antrim,-5.72721845,54.7549782,0.05206818,"N08000805,N08000826,N08000828,N08000839,out","[3997.718394672079, 3361.7942177773184, 2292.7075147863125, 0.0, 4243.779860025189]","3997.718394672079, 3361.7942177773184, 2292.7075147863125, 0.0, 4243.779860025189",East Antrim,2036.70779,526
N08000840,WOODBURN,"KILROOT,BALLYCARRY and GLYNN,SUNNYLANDS,BURLEIGH HILL,VICTORIA,JORDANSTOWN,BALLYNURE,KILWAUGHTER,GREENISLAND",49039171,38673,"2,648",East Antrim,-5.8586183,54.75325551,0,"N08000108,N08000124,N08000805,N08000810,N08000825,N08000828,N08000829,N08000836,N08000838,N08000840","[10036.602026176497, 2007.8547878591007, 7046.413244641502, 2633.6147395815387, 5963.0117844548995, 5082.405837785311, 3546.494178742389, 594.3256401932981, 1762.2777256483575, 0.0]","10036.602026176497, 2007.8547878591007, 7046.413244641502, 2633.6147395815387, 5963.0117844548995, 5082.405837785311, 3546.494178742389, 594.3256401932981, 1762.2777256483575, 0.0",East Antrim,2107.621331,540
N08000427,LURIGETHAN,"TORR HEAD and RATHLIN,CARNLOUGH and GLENARM,SLEMISH,GLENRAVEL",69453067,46578,"2,120",East Antrim,-6.08964872,55.03607666,0.199916502,"N08000812,N08000821,N08000835,N08000437,N08000427,out","[12606.141197755891, 5458.5359865811015, 2753.2610549275796, 9845.787386124834, 0.0, 15914.274349095715]","12606.141197755891, 5458.5359865811015, 2753.2610549275796, 9845.787386124834, 0.0, 15914.274349095715",Dalriada,1635.333152,485
N08000902,AUGHER and CLOGHER,"BALLYGAWLEY,AUGHNACLOY,FIVEMILETOWN,NEWTOWNSAVILLE,SIXMILECROSS",99920771,61905,"2,491",Fermanagh and South Tyrone,-7.10860898,54.43984116,0.112939877,"N08000902,N08000903,N08000904,N08000920,N08000636,N08000631,out","[0.0, 3918.0168168714576, 8315.291143544679, 20748.83520062573, 6419.7664007304575, 13136.718476541058, 9366.371965891947]","0.0, 3918.0168168714576, 8315.291143544679, 20748.83520062573, 6419.7664007304575, 13136.718476541058, 9366.371965891947",Fermanagh and South Tyrone,1202.671328,"1,288"
N08000903,AUGHNACLOY,"CALEDON,BALLYGAWLEY,CASTLECAULFIELD,AUGHER and CLOGHER",83790740,61637,"2,318",Fermanagh and South Tyrone,-6.92753762,54.43573689,0.21536399,"N08000902,N08000903,N08000904,N08000908,N08000909,out","[3784.453798448623, 0.0, 15290.68294393917, 16660.04434663904, 8650.03185489, 17251.787036283666]","3784.453798448623, 0.0, 15290.68294393917, 16660.04434663904, 8650.03185489, 17251.787036283666",Fermanagh and South Tyrone,1062.241059,"1,256"
N08000904,BALLYGAWLEY,"TERMON,AUGHNACLOY,CASTLECAULFIELD,DONAGHMORE,AUGHER and CLOGHER,SIXMILECROSS",76765807,52663,"2,360",Fermanagh and South Tyrone,-6.97904343,54.49531144,0,"N08000902,N08000903,N08000904,N08000909,N08000918,N08000639,N08000636","[8122.477782749791, 15463.259481007302, 0.0, 11703.729167464124, 7595.477197826161, 1179.887932263425, 8948.10302946889]","8122.477782749791, 15463.259481007302, 0.0, 11703.729167464124, 7595.477197826161, 1179.887932263425, 8948.10302946889",Fermanagh and South Tyrone,1067.815581,"1,292"
N08000906,BALLYSAGGART,"CALEDON,KILLYMEAL,MOYGASHEL,CASTLECAULFIELD,MULLAGHMORE",3955927,9519,"2,580",Fermanagh and South Tyrone,-6.77993486,54.49813347,0,"N08000906,N08000908,N08000909,N08000923,N08000929,N08000930","[0.0, 2369.4815258632443, 1818.2650980217545, 675.8234571915784, 2460.157114250704, 2195.2728021651083]","0.0, 2369.4815258632443, 1818.2650980217545, 675.8234571915784, 2460.157114250704, 2195.2728021651083",Upper Bann and Blackwater,1198.620534,"1,381"
N08000908,CALEDON,"KILLYMAN,BALLYSAGGART,NAVAN,BLACKWATERTOWN,MOY,MOYGASHEL,AUGHNACLOY,CASTLECAULFIELD",93755740,64684,"2,542",Fermanagh and South Tyrone,-6.83195881,54.41130074,0.113207752,"N08000207,N08000231,N08000903,N08000906,N08000908,N08000909,N08000922,N08000928,N08000929,out","[13490.835756658802, 3690.3939945093907, 17405.00263107867, 2338.7969144981193, 0.0, 4075.241473939802, 164.08394474195893, 8838.376001907542, 5207.231645254044, 9474.037670716618]","13490.835756658802, 3690.3939945093907, 17405.00263107867, 2338.7969144981193, 0.0, 4075.241473939802, 164.08394474195893, 8838.376001907542, 5207.231645254044, 9474.037670716618",Upper Bann and Blackwater,1179.662549,"1,362"
N08000909,CASTLECAULFIELD,"BALLYSAGGART,CALEDON,BALLYGAWLEY,AUGHNACLOY,MULLAGHMORE,DONAGHMORE",41698161,39003,"2,385",Fermanagh and South Tyrone,-6.85528189,54.50685849,0,"N08000903,N08000904,N08000906,N08000908,N08000909,N08000918,N08000930","[8710.102704288307, 11653.480991168439, 1729.8323578368747, 3927.905009417736, 0.0, 10605.50331935837, 2405.6939535109273]","8710.102704288307, 11653.480991168439, 1729.8323578368747, 3927.905009417736, 0.0, 10605.50331935837, 2405.6939535109273",Fermanagh and South Tyrone,1037.849845,"1,347"
N08000920,FIVEMILETOWN,"TEMPO,BROOKEBOROUGH,FINTONA,NEWTOWNSAVILLE,AUGHER and CLOGHER",148735598,75309,"2,143",Fermanagh and South Tyrone,-7.23504913,54.39538142,0.11847238,"N08000902,N08000920,N08000631,N08000620,N08000638,N08000606,out","[20143.886660984695, 0.0, 7504.173685333368, 10942.367524214917, 5653.490304641024, 21526.347619861263, 9538.734245190199]","20143.886660984695, 0.0, 7504.173685333368, 10942.367524214917, 5653.490304641024, 21526.347619861263, 9538.734245190199",Fermanagh and South Tyrone,1035.154269,"1,108"
N08000922,KILLYMAN,"LOUGHGALL,THE BIRCHES,COALISLAND SOUTH,WASHING BAY,COALISLAND NORTH,CALEDON,BLACKWATERTOWN,KILLYMEAL,MOY,MOYGASHEL",32318823,33367,"2,247",Fermanagh and South Tyrone,-6.68464725,54.49751811,0,"N08000207,N08000226,N08000239,N08000908,N08000913,N08000922,N08000923,N08000928,N08000929,N08000940,N08000912","[390.7484406467143, 3076.3884127035267, 1342.964318140705, 158.72499531212824, 3518.063686647681, 0.0, 6804.371217336853, 8126.0449586144405, 3125.195550344273, 6189.742637075909, 658.1760672931969]","390.7484406467143, 3076.3884127035267, 1342.964318140705, 158.72499531212824, 3518.063686647681, 0.0, 6804.371217336853, 8126.0449586144405, 3125.195550344273, 6189.742637075909, 658.1760672931969",Upper Bann and Blackwater,1021.618239,"1,225"
N08000923,KILLYMEAL,"KILLYMAN,COALISLAND NORTH,BALLYSAGGART,MOYGASHEL,MULLAGHMORE",9933514,18518,"2,586",Fermanagh and South Tyrone,-6.73418015,54.51026883,0.001007613,"N08000906,N08000922,N08000923,N08000929,N08000930,N08000912,out","[650.4978732429104, 6859.337917286459, 0.0, 4376.892089884053, 4114.213395048665, 2434.8295417181134, 82.22919712233488]","650.4978732429104, 6859.337917286459, 0.0, 4376.892089884053, 4114.213395048665, 2434.8295417181134, 82.22919712233488",Upper Bann and Blackwater,1153.051307,"1,433"
N08000928,MOY,"KILLYMAN,CALEDON,BLACKWATERTOWN",33810976,31952,"2,288",Fermanagh and South Tyrone,-6.72338081,54.44075201,0,"N08000207,N08000908,N08000922,N08000928","[15192.807036117163, 8592.492055366816, 8166.700937698386, 0.0]","15192.807036117163, 8592.492055366816, 8166.700937698386, 0.0",Upper Bann and Blackwater,1052.284482,"1,236"
N08000929,MOYGASHEL,"KILLYMAN,BALLYSAGGART,CALEDON,KILLYMEAL",5617926,14801,"2,281",Fermanagh and South Tyrone,-6.75469687,54.48498856,0,"N08000906,N08000908,N08000922,N08000923,N08000929","[2340.740153043346, 5019.4724410757, 3114.2189211237264, 4326.568475782436, 0.0]","2340.740153043346, 5019.4724410757, 3114.2189211237264, 4326.568475782436, 0.0",Upper Bann and Blackwater,1066.364157,"1,215"
N08000930,MULLAGHMORE,"COALISLAND NORTH,BALLYSAGGART,KILLYMEAL,CASTLECAULFIELD,DONAGHMORE",8440669,15065,"2,427",Fermanagh and South Tyrone,-6.7701035,54.5221594,0,"N08000906,N08000909,N08000918,N08000923,N08000930,N08000912","[2094.9568991230385, 2413.1268835594474, 5862.978726173904, 4079.066541723433, 0.0, 586.11443321258]","2094.9568991230385, 2413.1268835594474, 5862.978726173904, 4079.066541723433, 0.0, 586.11443321258",North Tyrone,1080.717569,"1,346"
N08000603,BELLEEK and BOA,"BELCOO and GARRISON,DERRYGONNELLY,EDERNEY and KESH,DRUMQUIN,GLENDERG",195890677,115238,"2,277",Fermanagh and South Tyrone,-7.82434958,54.53365468,0.617186145,"N08000603,N08000616,N08000617,N08000522,N08000602,N08000611,out","[0.0, 20432.450592467212, 22990.58604495151, 1167.7904302790969, 20394.339199656617, 3997.0946172803074, 46255.739087358]","0.0, 20432.450592467212, 22990.58604495151, 1167.7904302790969, 20394.339199656617, 3997.0946172803074, 46255.739087358",Fermanagh and South Tyrone,1033.829576,"1,243"
N08000638,TEMPO,"LISBELLAW,BALLINAMALLARD,TRILLICK,MAGUIRESBRIDGE,BROOKEBOROUGH,FINTONA,FIVEMILETOWN",90477774,59726,"2,053",Fermanagh and South Tyrone,-7.45783151,54.39114603,0,"N08000920,N08000620,N08000638,N08000606,N08000626,N08000640,N08000601,N08000629","[5543.492100227678, 536.9531047763165, 0.0, 16408.433773364053, 10137.980055101705, 13199.754617444474, 9854.68132312388, 4046.1511991325146]","5543.492100227678, 536.9531047763165, 0.0, 16408.433773364053, 10137.980055101705, 13199.754617444474, 9854.68132312388, 4046.1511991325146",Fermanagh and South Tyrone,972.8249323,"1,080"
N08000606,BROOKEBOROUGH,"TEMPO,MAGUIRESBRIDGE,DONAGH,ROSSLEA,FIVEMILETOWN",123488212,77991,"1,856",Fermanagh and South Tyrone,-7.3331997,54.3348598,0.090280296,"N08000920,N08000638,N08000606,N08000613,N08000629,N08000634,out","[21348.259509745312, 16595.581386847698, 0.0, 13881.704400511271, 11424.294734565241, 7532.430406460144, 7208.729591762929]","21348.259509745312, 16595.581386847698, 0.0, 13881.704400511271, 11424.294734565241, 7532.430406460144, 7208.729591762929",Fermanagh and South Tyrone,864.6270135,991
N08000628,LISNASKEA,"MAGUIRESBRIDGE,DONAGH",5582997,11784,"1,855",Fermanagh and South Tyrone,-7.44883921,54.25448735,0,"N08000628,N08000613,N08000629","[0.0, 5323.971933409366, 6478.163372238444]","0.0, 5323.971933409366, 6478.163372238444",Fermanagh and South Tyrone,844.6720447,"1,010"
N08000626,LISBELLAW,"BALLINAMALLARD,CASTLECOOLE,TEMPO,MAGUIRESBRIDGE,BOHO CLEENISH and LETTERBREEN",52280009,43687,"2,196",Fermanagh and South Tyrone,-7.56488205,54.32547222,0,"N08000638,N08000626,N08000601,N08000608,N08000605,N08000629","[10258.116885253063, 0.0, 2495.8160249236553, 8532.526144159669, 8091.163861925837, 14311.401777012643]","10258.116885253063, 0.0, 2495.8160249236553, 8532.526144159669, 8091.163861925837, 14311.401777012643",Fermanagh and South Tyrone,1003.233405,"1,193"
N08000613,DONAGH,"MAGUIRESBRIDGE,LISNASKEA,NEWTOWNBUTLER,DERRYLIN,ROSSLEA,BROOKEBOROUGH",109052300,67221,"1,970",Fermanagh and South Tyrone,-7.40208309,54.2401529,0,"N08000606,N08000628,N08000613,N08000630,N08000612,N08000629,N08000634","[14116.470406996257, 5271.841481619323, 0.0, 16037.33481878349, 8396.34647781152, 10633.29381966953, 12774.569646649888]","14116.470406996257, 5271.841481619323, 0.0, 16037.33481878349, 8396.34647781152, 10633.29381966953, 12774.569646649888",Fermanagh and South Tyrone,869.5567288,"1,100"
N08000617,EDERNEY and KESH,"LISNARRICK,IRVINESTOWN,DERRYGONNELLY,BELLEEK and BOA,DRUMQUIN",75777949,48969,"2,064",Fermanagh and South Tyrone,-7.68607295,54.51427057,0.010403919,"N08000603,N08000616,N08000617,N08000624,N08000627,N08000611,out","[23383.823014450085, 3628.405077455072, 0.0, 12171.16638247594, 5446.636731100923, 3545.89808446032, 793.0706877928271]","23383.823014450085, 3628.405077455072, 0.0, 12171.16638247594, 5446.636731100923, 3545.89808446032, 793.0706877928271",Fermanagh and South Tyrone,966.7516975,"1,097"
N08000601,BALLINAMALLARD,"LISBELLAW,CASTLECOOLE,TEMPO,TRILLICK,LISNARRICK,IRVINESTOWN",38145200,39647,"2,124",Fermanagh and South Tyrone,-7.58112725,54.40642867,0,"N08000638,N08000626,N08000640,N08000601,N08000624,N08000627,N08000608","[10262.772621275135, 2568.730132176621, 7844.591938740694, 0.0, 3832.028423471555, 13507.186148539742, 1631.690747307457]","10262.772621275135, 2568.730132176621, 7844.591938740694, 0.0, 3832.028423471555, 13507.186148539742, 1631.690747307457",Fermanagh and South Tyrone,955.78112,"1,168"
N08000630,NEWTOWNBUTLER,"DONAGH,DERRYLIN,ROSSLEA",90653959,87585,"1,892",Fermanagh and South Tyrone,-7.34711097,54.16943136,0.709653195,"N08000613,N08000630,N08000612,N08000634,out","[15880.970990546692, 0.0, 5269.09932960923, 9373.833727931129, 57061.09596946516]","15880.970990546692, 0.0, 5269.09932960923, 9373.833727931129, 57061.09596946516",Fermanagh and South Tyrone,894.3391741,998
N08000624,IRVINESTOWN,"BALLINAMALLARD,TRILLICK,LISNARRICK,EDERNEY and KESH,DRUMQUIN",42273688,38207,"2,148",Fermanagh and South Tyrone,-7.62204598,54.47727585,0.002963554,"N08000616,N08000617,N08000640,N08000601,N08000624,N08000627,out","[1102.7560503619668, 12486.431070067103, 7705.437538583047, 3644.913583133478, 0.0, 13035.704209115818, 231.7575820745415]","1102.7560503619668, 12486.431070067103, 7705.437538583047, 3644.913583133478, 0.0, 13035.704209115818, 231.7575820745415",Fermanagh and South Tyrone,1009.61217,"1,138"
N08000627,LISNARRICK,"BALLINAMALLARD,CASTLECOOLE,IRVINESTOWN,PORTORA,ERNE,DERRYGONNELLY,EDERNEY and KESH",75351239,53029,"1,995",Fermanagh and South Tyrone,-7.67503303,54.43129714,0,"N08000617,N08000601,N08000624,N08000627,N08000608,N08000633,N08000618,N08000611","[5889.611925839916, 13541.773447289812, 13739.997120306492, 0.0, 1000.0784984542895, 683.9420814383933, 4971.896133945454, 13140.942343064164]","5889.611925839916, 13541.773447289812, 13739.997120306492, 0.0, 1000.0784984542895, 683.9420814383933, 4971.896133945454, 13140.942343064164",Fermanagh and South Tyrone,916.9049315,"1,078"
N08000608,CASTLECOOLE,"LISBELLAW,BALLINAMALLARD,BOHO CLEENISH and LETTERBREEN,LISNARRICK,PORTORA,ERNE",6617341,16391,"2,197",Fermanagh and South Tyrone,-7.60688531,54.34395833,0,"N08000626,N08000601,N08000627,N08000608,N08000633,N08000618,N08000605","[8582.132709867541, 1594.5918417111213, 974.8439896173792, 0.0, 2496.152194847792, 2321.1625653329743, 1318.8287412665902]","8582.132709867541, 1594.5918417111213, 974.8439896173792, 0.0, 2496.152194847792, 2321.1625653329743, 1318.8287412665902",Fermanagh and South Tyrone,1015.299629,"1,182"
N08000633,PORTORA,"CASTLECOOLE,BOHO CLEENISH and LETTERBREEN,LISNARRICK,ERNE,DERRYGONNELLY,ROSSORRY",4131498,14910,"2,176",Fermanagh and South Tyrone,-7.65478223,54.35073373,0,"N08000627,N08000608,N08000633,N08000618,N08000605,N08000611,N08000635","[685.953700839323, 2568.298576407407, 0.0, 5888.485635361989, 1371.4562947740772, 2642.161830866984, 5511.7112614192365]","685.953700839323, 2568.298576407407, 0.0, 5888.485635361989, 1371.4562947740772, 2642.161830866984, 5511.7112614192365",Fermanagh and South Tyrone,1023.430781,"1,153"
N08000618,ERNE,"CASTLECOOLE,LISNARRICK,PORTORA",3219121,9921,"2,465",Fermanagh and South Tyrone,-7.63807409,54.35314545,0,"N08000627,N08000608,N08000633,N08000618","[4678.112210127697, 2240.5421417211865, 5524.293313081085, 0.0]","4678.112210127697, 2240.5421417211865, 5524.293313081085, 0.0",Fermanagh and South Tyrone,1135.404818,"1,330"
N08000602,BELCOO and GARRISON,"FLORENCE COURT and KINAWLEY,BOHO CLEENISH and LETTERBREEN,DERRYGONNELLY,BELLEEK and BOA",202248536,104520,"2,072",Fermanagh and South Tyrone,-7.99656954,54.4115332,0.531737745,"N08000603,N08000602,N08000605,N08000611,N08000621,out","[21123.68484832344, 0.0, 9168.898905158212, 31556.945826878502, 1393.5786514414428, 41276.89179363832]","21123.68484832344, 0.0, 9168.898905158212, 31556.945826878502, 1393.5786514414428, 41276.89179363832",Fermanagh and South Tyrone,983.7783415,"1,088"
N08000605,BOHO CLEENISH and LETTERBREEN,"LISBELLAW,CASTLECOOLE,MAGUIRESBRIDGE,FLORENCE COURT and KINAWLEY,BELCOO and GARRISON,PORTORA,DERRYGONNELLY,ROSSORRY",139982393,82936,"2,349",Fermanagh and South Tyrone,-7.76734914,54.32857817,0.030789618,"N08000626,N08000608,N08000633,N08000602,N08000605,N08000611,N08000621,N08000629,N08000635,out","[7967.305152521407, 1291.1338268500206, 1304.9395052406653, 9291.049419244324, 0.0, 27338.35453903969, 25556.254463402438, 573.7878754806619, 7191.246384641828, 2421.9288646225355]","7967.305152521407, 1291.1338268500206, 1304.9395052406653, 9291.049419244324, 0.0, 27338.35453903969, 25556.254463402438, 573.7878754806619, 7191.246384641828, 2421.9288646225355",Fermanagh and South Tyrone,1099.234157,"1,250"
N08000611,DERRYGONNELLY,"BELCOO and GARRISON,BOHO CLEENISH and LETTERBREEN,LISNARRICK,PORTORA,ROSSORRY,EDERNEY and KESH,BELLEEK and BOA",160966365,83860,"2,042",Fermanagh and South Tyrone,-7.81561739,54.4146922,0,"N08000603,N08000617,N08000627,N08000633,N08000602,N08000605,N08000611,N08000635","[4260.101245276875, 3715.6625687116257, 12734.393310709518, 2552.9110668604676, 32472.10292697551, 27761.327926569877, 0.0, 380.88108260131827]","4260.101245276875, 3715.6625687116257, 12734.393310709518, 2552.9110668604676, 32472.10292697551, 27761.327926569877, 0.0, 380.88108260131827",Fermanagh and South Tyrone,942.5558527,"1,099"
N08000612,DERRYLIN,"MAGUIRESBRIDGE,DONAGH,NEWTOWNBUTLER,FLORENCE COURT and KINAWLEY",105639857,54995,"1,916",Fermanagh and South Tyrone,-7.54630697,54.17823821,0.310034947,"N08000613,N08000630,N08000612,N08000621,N08000629,out","[8308.623257544785, 5265.386370211667, 0.0, 12463.291447437821, 4046.2805140894347, 24911.41838695758]","8308.623257544785, 5265.386370211667, 0.0, 12463.291447437821, 4046.2805140894347, 24911.41838695758",Fermanagh and South Tyrone,902.7425255,"1,013"
N08000621,FLORENCE COURT and KINAWLEY,"MAGUIRESBRIDGE,DERRYLIN,BELCOO and GARRISON,BOHO CLEENISH and LETTERBREEN",163739155,80667,"2,125",Fermanagh and South Tyrone,-7.73179738,54.24488606,0.43765246,"N08000602,N08000605,N08000612,N08000621,N08000629,out","[1417.465638088081, 25652.557685916436, 12247.16298073755, 0.0, 6794.09529278398, 34555.71839770103]","1417.465638088081, 25652.557685916436, 12247.16298073755, 0.0, 6794.09529278398, 34555.71839770103",Fermanagh and South Tyrone,968.9857211,"1,156"
N08000629,MAGUIRESBRIDGE,"LISBELLAW,TEMPO,DONAGH,LISNASKEA,DERRYLIN,FLORENCE COURT and KINAWLEY,BROOKEBOROUGH,BOHO CLEENISH and LETTERBREEN",88692044,58644,"2,408",Fermanagh and South Tyrone,-7.50550619,54.28227757,0.001117175,"N08000638,N08000606,N08000628,N08000626,N08000613,N08000605,N08000612,N08000621,N08000629,out","[4127.089092676903, 11521.414264915353, 6361.675984374609, 14426.723222815723, 10545.347077690662, 587.4033758477502, 4055.1818634956453, 6929.202219196332, 0.0, 89.96287425092439]","4127.089092676903, 11521.414264915353, 6361.675984374609, 14426.723222815723, 10545.347077690662, 587.4033758477502, 4055.1818634956453, 6929.202219196332, 0.0, 89.96287425092439",Fermanagh and South Tyrone,1175.894955,"1,232"
N08000634,ROSSLEA,"DONAGH,NEWTOWNBUTLER,BROOKEBOROUGH",95413995,55930,"1,744",Fermanagh and South Tyrone,-7.23978296,54.24945867,0.32918759,"N08000606,N08000613,N08000630,N08000634,out","[7565.11935313425, 12616.63691328051, 9349.098084497135, 0.0, 26399.145628710452]","7565.11935313425, 12616.63691328051, 9349.098084497135, 0.0, 26399.145628710452",Fermanagh and South Tyrone,833.0021066,911
N08000635,ROSSORRY,"BOHO CLEENISH and LETTERBREEN,PORTORA,DERRYGONNELLY",5745489,15824,"1,767",Fermanagh and South Tyrone,-7.66496371,54.3405951,0.029985764,"N08000633,N08000605,N08000611,N08000635,out","[5470.694254004987, 7501.5627612894, 391.26330267151457, 0.0, 2460.4796951289236]","5470.694254004987, 7501.5627612894, 391.26330267151457, 0.0, 2460.4796951289236",Fermanagh and South Tyrone,825.9852126,941
N08000535,SKEOGE,"BALLYMAGROARTY,SPRINGTOWN,CARN HILL,GALLIAGH,SHANTALLOW EAST,CULMORE",6147918,13057,"2,779",Foyle,-7.33734794,55.03910016,0.045497308,"N08000535,N08000537,N08000532,N08000513,N08000503,N08000505,N08000521,out","[0.0, 699.6214176825794, 2028.8973363649106, 1091.1432063419281, 3655.425869116776, 388.02962826465233, 1671.6727636212465, 3522.2097725366666]","0.0, 699.6214176825794, 2028.8973363649106, 1091.1432063419281, 3655.425869116776, 388.02962826465233, 1671.6727636212465, 3522.2097725366666",Foyle,512.9311929,"2,266"
N08000537,SPRINGTOWN,"BALLYMAGROARTY,SKEOGE,FOYLE SPRINGS,CARN HILL,NORTHLAND,MADAM'S BANK",1650945,6677,"2,482",Foyle,-7.33603835,55.01801182,0,"N08000535,N08000537,N08000503,N08000505,N08000520,N08000526,N08000529","[713.9955338605777, 0.0, 2864.974288534353, 1414.3014036436546, 1604.7372827266934, 975.5690406031471, 463.02294107010084]","713.9955338605777, 0.0, 2864.974288534353, 1414.3014036436546, 1604.7372827266934, 975.5690406031471, 463.02294107010084",Foyle,431.5956615,"2,050"
N08000532,SHANTALLOW EAST,"SKEOGE,GALLIAGH,SHANTALLOW,MADAM'S BANK,CULMORE",1768152,6977,"3,033",Foyle,-7.30583643,55.0350634,0,"N08000535,N08000532,N08000513,N08000521,N08000526,N08000531","[2121.100436504255, 0.0, 3087.161871494249, 624.1601609628638, 0.0, 1204.4300600781423]","2121.100436504255, 0.0, 3087.161871494249, 624.1601609628638, 0.0, 1204.4300600781423",Foyle,592.6525403,"2,440"
N08000513,CULMORE,"SKEOGE,SHANTALLOW,MADAM'S BANK,SHANTALLOW EAST,CAW,ENAGH",8815417,21015,"2,951",Foyle,-7.27897985,55.04598318,0.138852708,"N08000535,N08000532,N08000513,N08000507,N08000518,N08000526,N08000531,out","[1165.8634360969445, 3155.180211908333, 0.0, 0.005873593493127872, 4232.4958367590725, 975.9575543903021, 0.0, 11485.497063044753]","1165.8634360969445, 3155.180211908333, 0.0, 0.005873593493127872, 4232.4958367590725, 975.9575543903021, 0.0, 11485.497063044753",Foyle,531.841618,"2,419"
N08000503,BALLYMAGROARTY,"SKEOGE,SPRINGTOWN,FOYLE SPRINGS,SHERIFF'S MOUNTAIN",5235396,10186,"2,613",Foyle,-7.36533997,55.02218436,0.006397657,"N08000535,N08000537,N08000503,N08000520,N08000533,out","[3704.440426694672, 2844.9390322713225, 0.0, 1067.3107725165355, 2067.3891060259634, 501.92066068818053]","3704.440426694672, 2844.9390322713225, 0.0, 1067.3107725165355, 2067.3891060259634, 501.92066068818053",Foyle,440.6736863,"2,172"
N08000504,BRANDYWELL,"CREGGAN SOUTH,CREGGAN,SHERIFF'S MOUNTAIN,CITY WALLS,VICTORIA",642995,4696,"2,566",Foyle,-7.33316041,54.99204708,0,"N08000504,N08000508,N08000511,N08000512,N08000533,N08000540","[0.0, 2093.3625785990534, 419.77235497087935, 1498.8984138521646, 442.11880952666075, 211.04559175678355]","0.0, 2093.3625785990534, 419.77235497087935, 1498.8984138521646, 442.11880952666075, 211.04559175678355",Foyle,451.268721,"2,115"
N08000505,CARN HILL,"SKEOGE,SPRINGTOWN,GALLIAGH,SHANTALLOW,MADAM'S BANK",1047141,4869,"2,323",Foyle,-7.32459373,55.02274633,0,"N08000535,N08000537,N08000505,N08000521,N08000526,N08000531","[401.13818935130075, 1432.6453532847938, 0.0, 1602.3446052928905, 422.0315699191507, 976.3322866504528]","401.13818935130075, 1432.6453532847938, 0.0, 1602.3446052928905, 422.0315699191507, 976.3322866504528",Foyle,404.5487859,"1,918"
N08000507,CAW,"MADAM'S BANK,EBRINGTON,CULMORE,LISNAGELVIN,ENAGH,KILFENNAN",1653450,7022,"2,788",Foyle,-7.28398265,55.00556593,0,"N08000513,N08000507,N08000516,N08000518,N08000524,N08000525,N08000526","[0.006115542949935421, 0.0, 1770.151622196047, 2312.512829130535, 1557.141182194909, 733.672961878774, 657.8169026781947]","0.006115542949935421, 0.0, 1770.151622196047, 2312.512829130535, 1557.141182194909, 733.672961878774, 657.8169026781947",Foyle,516.0334354,"2,272"
N08000508,CITY WALLS,"NORTHLAND,EBRINGTON,CREGGAN,BRANDYWELL,VICTORIA",1099775,5378,"2,392",Foyle,-7.32381527,54.99292582,0,"N08000504,N08000508,N08000511,N08000516,N08000529,N08000540","[2011.0847361202839, 0.0, 115.88212440468261, 479.6545805753143, 958.9365242237285, 1812.4420288199371]","2011.0847361202839, 0.0, 115.88212440468261, 479.6545805753143, 958.9365242237285, 1812.4420288199371",Foyle,458.9549292,"1,933"
N08000510,CLONDERMOT,"LISNAGELVIN,SLIEVEKIRK,DRUMAHOE,KILFENNAN,VICTORIA",2648719,8955,"2,672",Foyle,-7.30137829,54.97814488,0,"N08000510,N08000514,N08000524,N08000525,N08000536,N08000540","[0.0, 1997.5999298203428, 995.6851275347952, 0.0, 4447.712345321714, 3219.218277827916]","0.0, 1997.5999298203428, 995.6851275347952, 0.0, 4447.712345321714, 3219.218277827916",Foyle,487.0634538,"2,185"
N08000511,CREGGAN,"NORTHLAND,CREGGAN SOUTH,SHERIFF'S MOUNTAIN,BRANDYWELL,CITY WALLS",674356,4291,"2,707",Foyle,-7.34001941,54.9981133,0,"N08000504,N08000508,N08000511,N08000512,N08000529,N08000533","[389.1948404568031, 111.83655362369662, 0.0, 1491.1905144545726, 867.1116621950617, 1431.666431256965]","389.1948404568031, 111.83655362369662, 0.0, 1491.1905144545726, 867.1116621950617, 1431.666431256965",Foyle,563.4419469,"2,144"
N08000512,CREGGAN SOUTH,"CREGGAN,SHERIFF'S MOUNTAIN,BRANDYWELL",1024759,4882,"2,645",Foyle,-7.34488374,54.99187717,0,"N08000504,N08000511,N08000512,N08000533","[1428.7076660976038, 1533.0314591193, 0.0, 1878.3358451138677]","1428.7076660976038, 1533.0314591193, 0.0, 1878.3358451138677",Foyle,463.8578037,"2,181"
N08000514,DRUMAHOE,"ENAGH,SLIEVEKIRK,CLONDERMOT,KILFENNAN",2635250,9499,"2,860",Foyle,-7.27591899,54.97980084,0,"N08000510,N08000514,N08000518,N08000524,N08000536","[1970.443195605217, 0.0, 2599.922544981874, 1362.0950495393436, 4927.702163378619]","1970.443195605217, 0.0, 2599.922544981874, 1362.0950495393436, 4927.702163378619",Foyle,547.8036855,"2,312"
N08000516,EBRINGTON,"NORTHLAND,MADAM'S BANK,CAW,LISNAGELVIN,CITY WALLS,VICTORIA",2816875,8387,"2,569",Foyle,-7.30345866,55.00220828,0,"N08000507,N08000508,N08000516,N08000525,N08000526,N08000529,N08000540","[1638.3082895822213, 485.5204679654709, 0.0, 2085.8617350072277, 1498.2191796042537, 1127.1235405923, 1551.9668268417636]","1638.3082895822213, 485.5204679654709, 0.0, 2085.8617350072277, 1498.2191796042537, 1127.1235405923, 1551.9668268417636",Foyle,449.3157618,"2,120"
N08000517,EGLINTON,"ENAGH,CLAUDY,GREYSTEEL",14380099,24150,"2,704",Foyle,-7.16687725,55.03090856,0.055588246,"N08000421,N08000509,N08000517,N08000518,out","[6183.218507836019, 4651.484882770399, 0.0, 8643.513994461704, 4671.782626755479]","6183.218507836019, 4651.484882770399, 0.0, 8643.513994461704, 4671.782626755479",Foyle,537.8437361,"2,166"
N08000518,ENAGH,"CULMORE,CAW,CLAUDY,EGLINTON,SLIEVEKIRK,DRUMAHOE,KILFENNAN",44024884,40007,"2,754",Foyle,-7.23225179,55.01845839,0.093918459,"N08000513,N08000507,N08000509,N08000514,N08000517,N08000518,N08000524,N08000536,out","[4214.140957796243, 2211.390984593627, 6681.858061317425, 2733.241827195327, 8470.297098215742, 0.0, 2268.3159283292553, 5692.780044978606, 7734.9751125466955]","4214.140957796243, 2211.390984593627, 6681.858061317425, 2733.241827195327, 8470.297098215742, 0.0, 2268.3159283292553, 5692.780044978606, 7734.9751125466955",Foyle,468.6543274,"2,285"
N08000520,FOYLE SPRINGS,"BALLYMAGROARTY,SPRINGTOWN,NORTHLAND,SHERIFF'S MOUNTAIN",855628,4133,"2,595",Foyle,-7.33739346,55.01040923,0,"N08000537,N08000503,N08000520,N08000529,N08000533","[1635.7554821546073, 1095.6027146400174, 0.0, 1196.9189764456735, 709.9075000503298]","1635.7554821546073, 1095.6027146400174, 0.0, 1196.9189764456735, 709.9075000503298",Foyle,492.4480827,"2,103"
N08000521,GALLIAGH,"SKEOGE,CARN HILL,SHANTALLOW,SHANTALLOW EAST",900570,4183,"2,738",Foyle,-7.32402078,55.02944672,0,"N08000535,N08000532,N08000505,N08000521,N08000531","[1666.4143946860224, 595.1502569662359, 1545.106936488451, 0.0, 364.0650686029623]","1666.4143946860224, 595.1502569662359, 1545.106936488451, 0.0, 364.0650686029623",Foyle,477.954471,"2,260"
N08000524,KILFENNAN,"CAW,LISNAGELVIN,ENAGH,CLONDERMOT,DRUMAHOE,VICTORIA",1620679,7888,"2,760",Foyle,-7.28236587,54.99219506,0,"N08000507,N08000510,N08000514,N08000518,N08000524,N08000525,N08000540","[1496.743474886581, 1037.8463742912263, 1439.3388951581276, 2280.035144102763, 0.0, 1641.5141100461587, 0.0]","1496.743474886581, 1037.8463742912263, 1439.3388951581276, 2280.035144102763, 0.0, 1641.5141100461587, 0.0",Foyle,508.8221084,"2,251"
